ODOM 0 0 0 0 0 0 0.009984 pippo 0.009984
ODOM 0 0 0 0 0 0 0.169924 pippo 0.169924
ODOM 0 0 0 0 0 0 0.330034 pippo 0.330034
ODOM 0 0 0 0 0 0 0.489979 pippo 0.489979
ODOM 0 0 0 0 0 0 0.649946 pippo 0.649946
ODOM 0 0 0 0 0 0 0.810028 pippo 0.810028
ODOM 0 0 0 0 0 0 0.969926 pippo 0.969926
ODOM 0 0 0 0 0 0 1.12995 pippo 1.12995
ODOM 0 0 0 0 0 0 1.29005 pippo 1.29005
ODOM 0 0 0 0 0 0 1.44996 pippo 1.44996
ODOM 0 0 0 0 0 0 1.62997 pippo 1.62997
ODOM 0 0 0 0 0 0 1.80999 pippo 1.80999
ODOM 0 0 0 0 0 0 1.96998 pippo 1.96998
ODOM 0 0 0 0 0 0 2.1501 pippo 2.1501
ODOM 0 0 0 0 0 0 2.34996 pippo 2.34996
ODOM 0 0 0 0 0 0 2.54001 pippo 2.54001
ODOM 0 0 0 0 0 0 2.70994 pippo 2.70994
ODOM 0 0 0 0 0 0 2.86994 pippo 2.86994
ODOM 0 0 0 0 0 0 3.03002 pippo 3.03002
ODOM 0 0 0 0 0 0 3.18996 pippo 3.18996
ODOM 0 0 0 0 0 0 3.34993 pippo 3.34993
ODOM 0 0 0 0 0 0 3.51001 pippo 3.51001
ODOM 0 0 0 0 0 0 3.66992 pippo 3.66992
ODOM 0 0 0 0 0 0 3.82993 pippo 3.82993
ODOM 0 0 0 0 0 0 3.99003 pippo 3.99003
ODOM 0 0 0 0 0 0 4.14996 pippo 4.14996
ODOM 0 0 0 0 0 0 4.30995 pippo 4.30995
ODOM 0 0 0 0 0 0 4.47004 pippo 4.47004
ODOM 0 0 0 0 0 0 4.62996 pippo 4.62996
ODOM 0 0 0 0 0 0 4.78993 pippo 4.78993
ODOM 0 0 0 0 0 0 4.95005 pippo 4.95005
ODOM 0 0 0 0 0 0 5.10995 pippo 5.10995
ODOM 0 0 0 0 0 0 5.26994 pippo 5.26994
ODOM 0 0 0 0 0 0 5.43004 pippo 5.43004
ODOM 0 0 0 0 0 0 5.58996 pippo 5.58996
ODOM 0 0 0 0 0 0 5.74995 pippo 5.74995
ODOM 0 0 0 0 0 0 5.91004 pippo 5.91004
ODOM 0 0 0 0 0 0 6.06995 pippo 6.06995
ODOM 0 0 0 0 0 0 6.22999 pippo 6.22999
ODOM 0 0 0 0 0 0 6.39001 pippo 6.39001
ODOM 0 0 0 0 0 0 6.54996 pippo 6.54996
ODOM 0 0 0 0 0 0 6.70993 pippo 6.70993
ODOM 0 0 0 0 0 0 6.87005 pippo 6.87005
ODOM 0 0 0 0 0 0 7.02995 pippo 7.02995
ODOM 0 0 0 0 0 0 7.1901 pippo 7.1901
ODOM 0 0 0 0 0 0 7.35005 pippo 7.35005
ODOM 0 0 0 0 0 0 7.50992 pippo 7.50992
ODOM 0 0 0 0 0 0 7.66993 pippo 7.66993
ODOM 0 0 0 0 0 0 7.83005 pippo 7.83005
ODOM 0 0 0 0 0 0 7.98995 pippo 7.98995
ODOM 0 0 0 0 0 0 8.14999 pippo 8.14999
ODOM 0 0 0 0 0 0 8.31004 pippo 8.31004
ODOM 0 0 0 0 0 0 8.46995 pippo 8.46995
ODOM 0 0 0 0 0 0 8.62997 pippo 8.62997
ODOM 0 0 0 0 0 0 8.79002 pippo 8.79002
ODOM 0 0 0 0 0 0 8.95001 pippo 8.95001
ODOM 0 0 0 0 0 0 9.11019 pippo 9.11019
ODOM 0 0 0 0 0 0 9.27004 pippo 9.27004
ODOM 0 0 0 0 0 0 9.42995 pippo 9.42995
ODOM 0 0 0 0 0 0 9.58994 pippo 9.58994
ODOM 0 0 0 0 0 0 9.75009 pippo 9.75009
ODOM 0 0 0 0 0 0 9.90991 pippo 9.90991
ODOM 0 0 0 0 0 0 10.0699 pippo 10.0699
ODOM 0 0 0 0 0 0 10.23 pippo 10.23
ODOM 0 0 0 0 0 0 10.39 pippo 10.39
ODOM 0 0 0 0 0 0 10.55 pippo 10.55
ODOM 0 0 0 0 0 0 10.7101 pippo 10.7101
ODOM 0 0 0 0 0 0 10.89 pippo 10.89
ODOM 0 0 0 0 0 0 11.07 pippo 11.07
ODOM 0 0 0 0 0 0 11.23 pippo 11.23
ODOM 0 0 0 0 0 0 11.3899 pippo 11.3899
ODOM 0 0 0 0 0 0 11.55 pippo 11.55
ODOM 0 0 0 0 0 0 11.7099 pippo 11.7099
ODOM 0 0 0 0 0 0 11.8699 pippo 11.8699
ODOM 0 0 0 0 0 0 12.03 pippo 12.03
ODOM 0 0 0 0 0 0 12.1899 pippo 12.1899
ODOM 0 0 0 0 0 0 12.3499 pippo 12.3499
ODOM 0 0 0 0 0 0 12.51 pippo 12.51
ODOM 0 0 0 0 0 0 12.67 pippo 12.67
ODOM 0 0 0 0 0 0 12.8299 pippo 12.8299
ODOM 0 0 0 0 0 0 12.99 pippo 12.99
ODOM 0 0 0 0 0 0 13.1703 pippo 13.1703
ODOM 0 0 0 0 0 0 13.37 pippo 13.37
ODOM 0 0 0 0 0 0 13.56 pippo 13.56
ODOM 0 0 0 0 0 0 13.73 pippo 13.73
ODOM 0 0 0 0 0 0 13.89 pippo 13.89
ODOM 0 0 0 0 0 0 14.05 pippo 14.05
ODOM 0 0 0 0 0 0 14.2102 pippo 14.2102
ODOM 0 0 0 0 0 0 14.37 pippo 14.37
ODOM 0 0 0 0 0 0 14.53 pippo 14.53
ODOM 0 0 0 0 0 0 14.6899 pippo 14.6899
ODOM 0 0 0 0 0 0 14.85 pippo 14.85
ODOM 0 0 0 0 0 0 15.01 pippo 15.01
ODOM 0 0 0 0 0 0 15.17 pippo 15.17
ODOM 0 0 0 0 0 0 15.3301 pippo 15.3301
ODOM 0 0 0 0 0 0 15.49 pippo 15.49
ODOM 0 0 0 0 0 0 15.65 pippo 15.65
ODOM 0 0 0 0 0 0 15.81 pippo 15.81
ODOM 0 0 0 0 0 0 15.97 pippo 15.97
ODOM 0 0 0 0 0 0 16.1299 pippo 16.1299
ODOM 0 0 0 0 0 0 16.29 pippo 16.29
ODOM 0 0 0 0 0 0 16.4502 pippo 16.4502
ODOM 0 0 0 0 0 0 16.6099 pippo 16.6099
ODOM 0 0 0 0 0 0 16.7701 pippo 16.7701
ODOM 0 0 0 0 0 0 16.93 pippo 16.93
ODOM 0 0 0 0 0 0 17.0899 pippo 17.0899
ODOM 0 0 0 0 0 0 17.25 pippo 17.25
ODOM 0 0 0 0 0 0 17.41 pippo 17.41
ODOM 0 0 0 0 0 0 17.57 pippo 17.57
ODOM 0 0 0 0 0 0 17.73 pippo 17.73
ODOM 0 0 0 0 0 0 17.8899 pippo 17.8899
ODOM 0 0 0 0 0 0 18.0499 pippo 18.0499
ODOM 0 0 0 0 0 0 18.21 pippo 18.21
ODOM 0 0 0 0 0 0 18.37 pippo 18.37
ODOM 0 0 0 0 0 0 18.5299 pippo 18.5299
ODOM 0 0 0 0 0 0 18.69 pippo 18.69
ODOM 0 0 0 0 0 0 18.85 pippo 18.85
ODOM 0 0 0 0 0 0 19.0099 pippo 19.0099
ODOM 0 0 0 0 0 0 19.17 pippo 19.17
ODOM 0 0 0 0 0 0 19.33 pippo 19.33
ODOM 0 0 0 0 0 0 19.4899 pippo 19.4899
ODOM 0 0 0 0 0 0 19.65 pippo 19.65
ODOM 0 0 0 0 0 0 19.8099 pippo 19.8099
ODOM 0 0 0 0 0 0 19.9699 pippo 19.9699
ODOM 0 0 0 0 0 0 20.1501 pippo 20.1501
ODOM 0 0 0 0 0 0 20.3302 pippo 20.3302
ODOM 0 0 0 0 0 0 20.49 pippo 20.49
ODOM 0 0 0 0 0 0 20.65 pippo 20.65
ODOM 0 0 0 0 0 0 20.8099 pippo 20.8099
ODOM 0 0 0 0 0 0 20.97 pippo 20.97
ODOM 0 0 0 0 0 0 21.13 pippo 21.13
ODOM 0 0 0 0 0 0 21.2899 pippo 21.2899
ODOM 0 0 0 0 0 0 21.4501 pippo 21.4501
ODOM 0 0 0 0 0 0 21.6099 pippo 21.6099
ODOM 0 0 0 0 0 0 21.7699 pippo 21.7699
ODOM 0 0 0 0 0 0 21.93 pippo 21.93
ODOM 0 0 0 0 0 0 22.09 pippo 22.09
ODOM 0 0 0 0 0 0 22.2499 pippo 22.2499
ODOM 0 0 0 0 0 0 22.41 pippo 22.41
ODOM 0 0 0 0 0 0 22.57 pippo 22.57
ODOM 0 0 0 0 0 0 22.7299 pippo 22.7299
ODOM 0 0 0 0 0 0 22.89 pippo 22.89
ODOM 0 0 0 0 0 0 23.0499 pippo 23.0499
ODOM 0 0 0 0 0 0 23.2099 pippo 23.2099
ODOM 0 0 0 0 0 0 23.37 pippo 23.37
ODOM 0 0 0 0 0 0 23.5299 pippo 23.5299
ODOM 0 0 0 0 0 0 23.69 pippo 23.69
ODOM 0 0 0 0 0 0 23.85 pippo 23.85
ODOM 0 0 0 0 0 0 24.0299 pippo 24.0299
ODOM 0 0 0 0 0 0 24.23 pippo 24.23
ODOM 0 0 0 0 0 0 24.42 pippo 24.42
ODOM 0 0 0 0 0 0 24.59 pippo 24.59
ODOM 0 0 0 0 0 0 24.75 pippo 24.75
ODOM 0 0 0 0 0 0 24.91 pippo 24.91
ODOM 0 0 0 0 0 0 25.0699 pippo 25.0699
ODOM 0 0 0 0 0 0 25.2301 pippo 25.2301
ODOM 0 0 0 0 0 0 25.39 pippo 25.39
ODOM 0 0 0 0 0 0 25.5502 pippo 25.5502
ODOM 0 0 0 0 0 0 25.7101 pippo 25.7101
ODOM 0 0 0 0 0 0 25.8699 pippo 25.8699
ODOM 0 0 0 0 0 0 26.0299 pippo 26.0299
ODOM 0 0 0 0 0 0 26.19 pippo 26.19
ODOM 0 0 0 0 0 0 26.35 pippo 26.35
ODOM 0 0 0 0 0 0 26.5099 pippo 26.5099
ODOM 0 0 0 0 0 0 26.6701 pippo 26.6701
ODOM 0 0 0 0 0 0 26.83 pippo 26.83
ODOM 0 0 0 0 0 0 26.99 pippo 26.99
ODOM 0 0 0 0 0 0 27.15 pippo 27.15
ODOM 0 0 0 0 0 0 27.3099 pippo 27.3099
ODOM 0 0 0 0 0 0 27.4701 pippo 27.4701
ODOM 0 0 0 0 0 0 27.63 pippo 27.63
ODOM 0 0 0 0 0 0 27.79 pippo 27.79
ODOM 0 0 0 0 0 0 27.9499 pippo 27.9499
ODOM 0 0 0 0 0 0 28.11 pippo 28.11
ODOM 0 0 0 0 0 0 28.27 pippo 28.27
ODOM 0 0 0 0 0 0 28.4299 pippo 28.4299
ODOM 0 0 0 0 0 0 28.59 pippo 28.59
ODOM 0 0 0 0 0 0 28.75 pippo 28.75
ODOM 0 0 0 0 0 0 28.9099 pippo 28.9099
ODOM 0 0 0 0 0 0 29.07 pippo 29.07
ODOM 0 0 0 0 0 0 29.23 pippo 29.23
ODOM 0 0 0 0 0 0 29.3899 pippo 29.3899
ODOM 0 0 0 0 0 0 29.55 pippo 29.55
ODOM 0 0 0 0 0 0 29.7099 pippo 29.7099
ODOM 0 0 0 0 0 0 29.8699 pippo 29.8699
ODOM 0 0 0 0 0 0 30.03 pippo 30.03
ODOM 0 0 0 0 0 0 30.19 pippo 30.19
ODOM 0 0 0 0 0 0 30.3499 pippo 30.3499
ODOM 0 0 0 0 0 0 30.51 pippo 30.51
ODOM 0 0 0 0 0 0 30.67 pippo 30.67
ODOM 0 0 0 0 0 0 30.83 pippo 30.83
ODOM 0 0 0 0 0 0 30.99 pippo 30.99
ODOM 0 0 0 0 0 0 31.1499 pippo 31.1499
ODOM 0 0 0 0 0 0 31.3099 pippo 31.3099
ODOM 0 0 0 0 0 0 31.47 pippo 31.47
ODOM 0 0 0 0 0 0 31.6299 pippo 31.6299
ODOM 0 0 0 0 0 0 31.7899 pippo 31.7899
ODOM 0 0 0 0 0 0 31.95 pippo 31.95
ODOM 0 0 0 0 0 0 32.1099 pippo 32.1099
ODOM 0 0 0 0 0 0 32.2699 pippo 32.2699
ODOM 0 0 0 0 0 0 32.43 pippo 32.43
ODOM 0 0 0 0 0 0 32.5899 pippo 32.5899
ODOM 0 0 0 0 0 0 32.7499 pippo 32.7499
ODOM 0 0 0 0 0 0 32.91 pippo 32.91
ODOM 0 0 0 0 0 0 33.0699 pippo 33.0699
ODOM 0 0 0 0 0 0 33.23 pippo 33.23
ODOM 0 0 0 0 0 0 33.39 pippo 33.39
ODOM 0 0 0 0 0 0 33.55 pippo 33.55
ODOM 0 0 0 0 0 0 33.7102 pippo 33.7102
ODOM 0 0 0 0 0 0 33.89 pippo 33.89
ODOM 0 0 0 0 0 0 34.07 pippo 34.07
ODOM 0 0 0 0 0 0 34.2301 pippo 34.2301
ODOM 0 0 0 0 0 0 34.3899 pippo 34.3899
ODOM 0 0 0 0 0 0 34.5499 pippo 34.5499
ODOM 0 0 0 0 0 0 34.71 pippo 34.71
ODOM 0 0 0 0 0 0 34.8899 pippo 34.8899
ODOM 0 0 0 0 0 0 35.0899 pippo 35.0899
ODOM 0 0 0 0 0 0 35.29 pippo 35.29
ODOM 0 0 0 0 0 0 35.48 pippo 35.48
ODOM 0 0 0 0 0 0 35.65 pippo 35.65
ODOM 0 0 0 0 0 0 35.8099 pippo 35.8099
ODOM 0 0 0 0 0 0 35.97 pippo 35.97
ODOM 0 0 0 0 0 0 36.13 pippo 36.13
ODOM 0 0 0 0 0 0 36.29 pippo 36.29
ODOM 0 0 0 0 0 0 36.45 pippo 36.45
ODOM 0 0 0 0 0 0 36.61 pippo 36.61
ODOM 0 0 0 0 0 0 36.7702 pippo 36.7702
ODOM 0 0 0 0 0 0 36.9301 pippo 36.9301
ODOM 0 0 0 0 0 0 37.09 pippo 37.09
ODOM 0 0 0 0 0 0 37.2499 pippo 37.2499
ODOM 0 0 0 0 0 0 37.41 pippo 37.41
ODOM 0 0 0 0 0 0 37.5699 pippo 37.5699
ODOM 0 0 0 0 0 0 37.7299 pippo 37.7299
ODOM 0 0 0 0 0 0 37.89 pippo 37.89
ODOM 0 0 0 0 0 0 38.05 pippo 38.05
ODOM 0 0 0 0 0 0 38.2099 pippo 38.2099
ODOM 0 0 0 0 0 0 38.37 pippo 38.37
ODOM 0 0 0 0 0 0 38.5299 pippo 38.5299
ODOM 0 0 0 0 0 0 38.6902 pippo 38.6902
ODOM 0 0 0 0 0 0 38.85 pippo 38.85
ODOM 0 0 0 0 0 0 39.01 pippo 39.01
ODOM 0 0 0 0 0 0 39.17 pippo 39.17
ODOM 0 0 0 0 0 0 39.33 pippo 39.33
ODOM 0 0 0 0 0 0 39.49 pippo 39.49
ODOM 0 0 0 0 0 0 39.6499 pippo 39.6499
ODOM 0 0 0 0 0 0 39.8101 pippo 39.8101
ODOM 0 0 0 0 0 0 39.9699 pippo 39.9699
ODOM 0 0 0 0 0 0 40.1299 pippo 40.1299
ODOM 0 0 0 0 0 0 40.29 pippo 40.29
ODOM 0 0 0 0 0 0 40.45 pippo 40.45
ODOM 0 0 0 0 0 0 40.6099 pippo 40.6099
ODOM 0 0 0 0 0 0 40.77 pippo 40.77
ODOM 0 0 0 0 0 0 40.93 pippo 40.93
ODOM 0 0 0 0 0 0 41.0899 pippo 41.0899
ODOM 0 0 0 0 0 0 41.25 pippo 41.25
ODOM 0 0 0 0 0 0 41.4099 pippo 41.4099
ODOM 0 0 0 0 0 0 41.5699 pippo 41.5699
ODOM 0 0 0 0 0 0 41.73 pippo 41.73
ODOM 0 0 0 0 0 0 41.8899 pippo 41.8899
ODOM 0 0 0 0 0 0 42.0499 pippo 42.0499
ODOM 0 0 0 0 0 0 42.21 pippo 42.21
ODOM 0 0 0 0 0 0 42.37 pippo 42.37
ODOM 0 0 0 0 0 0 42.5299 pippo 42.5299
ODOM 0 0 0 0 0 0 42.69 pippo 42.69
ODOM 0 0 0 0 0 0 42.85 pippo 42.85
ODOM 0 0 0 0 0 0 43.03 pippo 43.03
ODOM 0 0 0 0 0 0 43.21 pippo 43.21
ODOM 0 0 0 0 0 0 43.3699 pippo 43.3699
ODOM 0 0 0 0 0 0 43.53 pippo 43.53
ODOM 0 0 0 0 0 0 43.69 pippo 43.69
ODOM 0 0 0 0 0 0 43.85 pippo 43.85
ODOM 0 0 0 0 0 0 44.01 pippo 44.01
ODOM 0 0 0 0 0 0 44.1701 pippo 44.1701
ODOM 0 0 0 0 0 0 44.3299 pippo 44.3299
ODOM 0 0 0 0 0 0 44.49 pippo 44.49
ODOM 0 0 0 0 0 0 44.65 pippo 44.65
ODOM 0 0 0 0 0 0 44.8101 pippo 44.8101
ODOM 0 0 0 0 0 0 44.97 pippo 44.97
ODOM 0 0 0 0 0 0 45.13 pippo 45.13
ODOM 0 0 0 0 0 0 45.2899 pippo 45.2899
ODOM 0 0 0 0 0 0 45.4501 pippo 45.4501
ODOM 0 0 0 0 0 0 45.6099 pippo 45.6099
ODOM 0 0 0 0 0 0 45.7699 pippo 45.7699
ODOM 0 0 0 0 0 0 45.95 pippo 45.95
ODOM 0 0 0 0 0 0 46.15 pippo 46.15
ODOM 0 0 0 0 0 0 46.34 pippo 46.34
ODOM 0 0 0 0 0 0 46.51 pippo 46.51
ODOM 0 0 0 0 0 0 46.6699 pippo 46.6699
ODOM 0 0 0 0 0 0 46.8301 pippo 46.8301
ODOM 0 0 0 0 0 0 46.99 pippo 46.99
ODOM 0 0 0 0 0 0 47.1499 pippo 47.1499
ODOM 0 0 0 0 0 0 47.3101 pippo 47.3101
ODOM 0 0 0 0 0 0 47.4699 pippo 47.4699
ODOM 0 0 0 0 0 0 47.6299 pippo 47.6299
ODOM 0 0 0 0 0 0 47.79 pippo 47.79
ODOM 0 0 0 0 0 0 47.95 pippo 47.95
ODOM 0 0 0 0 0 0 48.11 pippo 48.11
ODOM 0 0 0 0 0 0 48.27 pippo 48.27
ODOM 0 0 0 0 0 0 48.43 pippo 48.43
ODOM 0 0 0 0 0 0 48.59 pippo 48.59
ODOM 0 0 0 0 0 0 48.75 pippo 48.75
ODOM 0 0 0 0 0 0 48.91 pippo 48.91
ODOM 0 0 0 0 0 0 49.0699 pippo 49.0699
ODOM 0 0 0 0 0 0 49.2301 pippo 49.2301
ODOM 0 0 0 0 0 0 49.3899 pippo 49.3899
ODOM 0 0 0 0 0 0 49.55 pippo 49.55
ODOM 0 0 0 0 0 0 49.71 pippo 49.71
ODOM 0 0 0 0 0 0 49.8699 pippo 49.8699
ODOM 0 0 0 0 0 0 50.0301 pippo 50.0301
ODOM 0 0 0 0 0 0 50.19 pippo 50.19
ODOM 0 0 0 0 0 0 50.3499 pippo 50.3499
ODOM 0 0 0 0 0 0 50.5099 pippo 50.5099
ODOM 0 0 0 0 0 0 50.67 pippo 50.67
ODOM 0 0 0 0 0 0 50.8299 pippo 50.8299
ODOM 0 0 0 0 0 0 50.9899 pippo 50.9899
ODOM 0 0 0 0 0 0 51.1501 pippo 51.1501
ODOM 0 0 0 0 0 0 51.31 pippo 51.31
ODOM 0 0 0 0 0 0 51.4699 pippo 51.4699
ODOM 0 0 0 0 0 0 51.63 pippo 51.63
ODOM 0 0 0 0 0 0 51.79 pippo 51.79
ODOM 0 0 0 0 0 0 51.9502 pippo 51.9502
ODOM 0 0 0 0 0 0 52.11 pippo 52.11
ODOM 0 0 0 0 0 0 52.29 pippo 52.29
ODOM 0 0 0 0 0 0 52.47 pippo 52.47
ODOM 0 0 0 0 0 0 52.6302 pippo 52.6302
ODOM 0 0 0 0 0 0 52.7899 pippo 52.7899
ODOM 0 0 0 0 0 0 52.95 pippo 52.95
ODOM 0 0 0 0 0 0 53.11 pippo 53.11
ODOM 0 0 0 0 0 0 53.27 pippo 53.27
ODOM 0 0 0 0 0 0 53.43 pippo 53.43
ODOM 0 0 0 0 0 0 53.5899 pippo 53.5899
ODOM 0 0 0 0 0 0 53.75 pippo 53.75
ODOM 0 0 0 0 0 0 53.91 pippo 53.91
ODOM 0 0 0 0 0 0 54.0699 pippo 54.0699
ODOM 0 0 0 0 0 0 54.2299 pippo 54.2299
ODOM 0 0 0 0 0 0 54.39 pippo 54.39
ODOM 0 0 0 0 0 0 54.5499 pippo 54.5499
ODOM 0 0 0 0 0 0 54.7099 pippo 54.7099
ODOM 0 0 0 0 0 0 54.87 pippo 54.87
ODOM 0 0 0 0 0 0 55.03 pippo 55.03
ODOM 0 0 0 0 0 0 55.1899 pippo 55.1899
ODOM 0 0 0 0 0 0 55.35 pippo 55.35
ODOM 0 0 0 0 0 0 55.51 pippo 55.51
ODOM 0 0 0 0 0 0 55.6699 pippo 55.6699
ODOM 0 0 0 0 0 0 55.8301 pippo 55.8301
ODOM 0 0 0 0 0 0 55.99 pippo 55.99
ODOM 0 0 0 0 0 0 56.1502 pippo 56.1502
ODOM 0 0 0 0 0 0 56.3101 pippo 56.3101
ODOM 0 0 0 0 0 0 56.47 pippo 56.47
ODOM 0 0 0 0 0 0 56.63 pippo 56.63
ODOM 0 0 0 0 0 0 56.81 pippo 56.81
ODOM 0 0 0 0 0 0 57.0102 pippo 57.0102
ODOM 0 0 0 0 0 0 57.2 pippo 57.2
ODOM 0 0 0 0 0 0 57.3699 pippo 57.3699
ODOM 0 0 0 0 0 0 57.53 pippo 57.53
ODOM 0 0 0 0 0 0 57.6901 pippo 57.6901
ODOM 0 0 0 0 0 0 57.85 pippo 57.85
ODOM 0 0 0 0 0 0 58.01 pippo 58.01
ODOM 0 0 0 0 0 0 58.17 pippo 58.17
ODOM 0 0 0 0 0 0 58.33 pippo 58.33
ODOM 0 0 0 0 0 0 58.49 pippo 58.49
ODOM 0 0 0 0 0 0 58.6501 pippo 58.6501
ODOM 0 0 0 0 0 0 58.81 pippo 58.81
ODOM 0 0 0 0 0 0 58.9699 pippo 58.9699
ODOM 0 0 0 0 0 0 59.13 pippo 59.13
ODOM 0 0 0 0 0 0 59.2901 pippo 59.2901
ODOM 0 0 0 0 0 0 59.4499 pippo 59.4499
ODOM 0 0 0 0 0 0 59.61 pippo 59.61
ODOM 0 0 0 0 0 0 59.7699 pippo 59.7699
ODOM 0 0 0 0 0 0 59.9299 pippo 59.9299
ODOM 0 0 0 0 0 0 60.09 pippo 60.09
ODOM 0 0 0 0 0 0 60.2499 pippo 60.2499
ODOM 0 0 0 0 0 0 60.4099 pippo 60.4099
ODOM 0 0 0 0 0 0 60.57 pippo 60.57
ODOM 0 0 0 0 0 0 60.7299 pippo 60.7299
ODOM 0 0 0 0 0 0 60.8899 pippo 60.8899
ODOM 0 0 0 0 0 0 61.05 pippo 61.05
ODOM 0 0 0 0 0 0 61.2099 pippo 61.2099
ODOM 0 0 0 0 0 0 61.3699 pippo 61.3699
ODOM 0 0 0 0 0 0 61.53 pippo 61.53
ODOM 0 0 0 0 0 0 61.6899 pippo 61.6899
ODOM 0 0 0 0 0 0 61.8499 pippo 61.8499
ODOM 0 0 0 0 0 0 62.01 pippo 62.01
ODOM 0 0 0 0 0 0 62.1701 pippo 62.1701
ODOM 0 0 0 0 0 0 62.3299 pippo 62.3299
ODOM 0 0 0 0 0 0 62.49 pippo 62.49
ODOM 0 0 0 0 0 0 62.65 pippo 62.65
ODOM 0 0 0 0 0 0 62.8099 pippo 62.8099
ODOM 0 0 0 0 0 0 62.97 pippo 62.97
ODOM 0 0 0 0 0 0 63.13 pippo 63.13
ODOM 0 0 0 0 0 0 63.29 pippo 63.29
ODOM 0 0 0 0 0 0 63.45 pippo 63.45
ODOM 0 0 0 0 0 0 63.61 pippo 63.61
ODOM 0 0 0 0 0 0 63.7699 pippo 63.7699
ODOM 0 0 0 0 0 0 63.93 pippo 63.93
ODOM 0 0 0 0 0 0 64.0899 pippo 64.0899
ODOM 0 0 0 0 0 0 64.2499 pippo 64.2499
ODOM 0 0 0 0 0 0 64.41 pippo 64.41
ODOM 0 0 0 0 0 0 64.5699 pippo 64.5699
ODOM 0 0 0 0 0 0 64.7299 pippo 64.7299
ODOM 0 0 0 0 0 0 64.89 pippo 64.89
ODOM 0 0 0 0 0 0 65.0499 pippo 65.0499
ODOM 0 0 0 0 0 0 65.21 pippo 65.21
ODOM 0 0 0 0 0 0 65.37 pippo 65.37
ODOM 0 0 0 0 0 0 65.53 pippo 65.53
ODOM 0 0 0 0 0 0 65.6899 pippo 65.6899
ODOM 0 0 0 0 0 0 65.85 pippo 65.85
ODOM 0 0 0 0 0 0 66.03 pippo 66.03
ODOM 0 0 0 0 0 0 66.21 pippo 66.21
ODOM 0 0 0 0 0 0 66.37 pippo 66.37
ODOM 0 0 0 0 0 0 66.53 pippo 66.53
ODOM 0 0 0 0 0 0 66.69 pippo 66.69
ODOM 0 0 0 0 0 0 66.85 pippo 66.85
ODOM 0 0 0 0 0 0 67.0099 pippo 67.0099
ODOM 0 0 0 0 0 0 67.17 pippo 67.17
ODOM 0 0 0 0 0 0 67.3299 pippo 67.3299
ODOM 0 0 0 0 0 0 67.4899 pippo 67.4899
ODOM 0 0 0 0 0 0 67.67 pippo 67.67
ODOM 0 0 0 0 0 0 67.87 pippo 67.87
ODOM 0 0 0 0 0 0 68.06 pippo 68.06
ODOM 0 0 0 0 0 0 68.23 pippo 68.23
ODOM 0 0 0 0 0 0 68.3901 pippo 68.3901
ODOM 0 0 0 0 0 0 68.5501 pippo 68.5501
ODOM 0 0 0 0 0 0 68.71 pippo 68.71
ODOM 0 0 0 0 0 0 68.87 pippo 68.87
ODOM 0 0 0 0 0 0 69.0301 pippo 69.0301
ODOM 0 0 0 0 0 0 69.19 pippo 69.19
ODOM 0 0 0 0 0 0 69.35 pippo 69.35
ODOM 0 0 0 0 0 0 69.5101 pippo 69.5101
ODOM 0 0 0 0 0 0 69.6699 pippo 69.6699
ODOM 0 0 0 0 0 0 69.83 pippo 69.83
ODOM 0 0 0 0 0 0 69.9901 pippo 69.9901
ODOM 0 0 0 0 0 0 70.15 pippo 70.15
ODOM 0 0 0 0 0 0 70.31 pippo 70.31
ODOM 0 0 0 0 0 0 70.47 pippo 70.47
ODOM 0 0 0 0 0 0 70.63 pippo 70.63
ODOM 0 0 0 0 0 0 70.79 pippo 70.79
ODOM 0 0 0 0 0 0 70.9501 pippo 70.9501
ODOM 0 0 0 0 0 0 71.1099 pippo 71.1099
ODOM 0 0 0 0 0 0 71.2699 pippo 71.2699
ODOM 0 0 0 0 0 0 71.43 pippo 71.43
ODOM 0 0 0 0 0 0 71.59 pippo 71.59
ODOM 0 0 0 0 0 0 71.7499 pippo 71.7499
ODOM 0 0 0 0 0 0 71.91 pippo 71.91
ODOM 0 0 0 0 0 0 72.0699 pippo 72.0699
ODOM 0 0 0 0 0 0 72.2299 pippo 72.2299
ODOM 0 0 0 0 0 0 72.39 pippo 72.39
ODOM 0 0 0 0 0 0 72.5499 pippo 72.5499
ODOM 0 0 0 0 0 0 72.7099 pippo 72.7099
ODOM 0 0 0 0 0 0 72.87 pippo 72.87
ODOM 0 0 0 0 0 0 73.0299 pippo 73.0299
ODOM 0 0 0 0 0 0 73.1899 pippo 73.1899
ODOM 0 0 0 0 0 0 73.35 pippo 73.35
ODOM 0 0 0 0 0 0 73.5099 pippo 73.5099
ODOM 0 0 0 0 0 0 73.6699 pippo 73.6699
ODOM 0 0 0 0 0 0 73.83 pippo 73.83
ODOM 0 0 0 0 0 0 73.9899 pippo 73.9899
ODOM 0 0 0 0 0 0 74.1499 pippo 74.1499
ODOM 0 0 0 0 0 0 74.31 pippo 74.31
ODOM 0 0 0 0 0 0 74.47 pippo 74.47
ODOM 0 0 0 0 0 0 74.6299 pippo 74.6299
ODOM 0 0 0 0 0 0 74.79 pippo 74.79
ODOM 0 0 0 0 0 0 74.9499 pippo 74.9499
ODOM 0 0 0 0 0 0 75.1099 pippo 75.1099
ODOM 0 0 0 0 0 0 75.2899 pippo 75.2899
ODOM 0 0 0 0 0 0 75.4699 pippo 75.4699
ODOM 0 0 0 0 0 0 75.63 pippo 75.63
ODOM 0 0 0 0 0 0 75.7899 pippo 75.7899
ODOM 0 0 0 0 0 0 75.9499 pippo 75.9499
ODOM 0 0 0 0 0 0 76.11 pippo 76.11
ODOM 0 0 0 0 0 0 76.27 pippo 76.27
ODOM 0 0 0 0 0 0 76.43 pippo 76.43
ODOM 0 0 0 0 0 0 76.59 pippo 76.59
ODOM 0 0 0 0 0 0 76.7501 pippo 76.7501
ODOM 0 0 0 0 0 0 76.9099 pippo 76.9099
ODOM 0 0 0 0 0 0 77.07 pippo 77.07
ODOM 0 0 0 0 0 0 77.2299 pippo 77.2299
ODOM 0 0 0 0 0 0 77.3899 pippo 77.3899
ODOM 0 0 0 0 0 0 77.55 pippo 77.55
ODOM 0 0 0 0 0 0 77.7099 pippo 77.7099
ODOM 0 0 0 0 0 0 77.8699 pippo 77.8699
ODOM 0 0 0 0 0 0 78.03 pippo 78.03
ODOM 0 0 0 0 0 0 78.1899 pippo 78.1899
ODOM 0 0 0 0 0 0 78.3499 pippo 78.3499
ODOM 0 0 0 0 0 0 78.51 pippo 78.51
ODOM 0 0 0 0 0 0 78.6899 pippo 78.6899
ODOM 0 0 0 0 0 0 78.8899 pippo 78.8899
ODOM 0 0 0 0 0 0 79.0799 pippo 79.0799
ODOM 0 0 0 0 0 0 79.2499 pippo 79.2499
ODOM 0 0 0 0 0 0 79.41 pippo 79.41
ODOM 0 0 0 0 0 0 79.5699 pippo 79.5699
ODOM 0 0 0 0 0 0 79.7299 pippo 79.7299
ODOM 0 0 0 0 0 0 79.89 pippo 79.89
ODOM 0 0 0 0 0 0 80.0499 pippo 80.0499
ODOM 0 0 0 0 0 0 80.2099 pippo 80.2099
ODOM 0 0 0 0 0 0 80.37 pippo 80.37
ODOM 0 0 0 0 0 0 80.53 pippo 80.53
ODOM 0 0 0 0 0 0 80.6899 pippo 80.6899
ODOM 0 0 0 0 0 0 80.85 pippo 80.85
ODOM 0 0 0 0 0 0 81.0099 pippo 81.0099
ODOM 0 0 0 0 0 0 81.1699 pippo 81.1699
ODOM 0 0 0 0 0 0 81.33 pippo 81.33
ODOM 0 0 0 0 0 0 81.49 pippo 81.49
ODOM 0 0 0 0 0 0 81.6501 pippo 81.6501
ODOM 0 0 0 0 0 0 81.81 pippo 81.81
ODOM 0 0 0 0 0 0 81.9699 pippo 81.9699
ODOM 0 0 0 0 0 0 82.1299 pippo 82.1299
ODOM 0 0 0 0 0 0 82.29 pippo 82.29
ODOM 0 0 0 0 0 0 82.4499 pippo 82.4499
ODOM 0 0 0 0 0 0 82.6099 pippo 82.6099
ODOM 0 0 0 0 0 0 82.77 pippo 82.77
ODOM 0 0 0 0 0 0 82.9299 pippo 82.9299
ODOM 0 0 0 0 0 0 83.0899 pippo 83.0899
ODOM 0 0 0 0 0 0 83.25 pippo 83.25
ODOM 0 0 0 0 0 0 83.4099 pippo 83.4099
ODOM 0 0 0 0 0 0 83.57 pippo 83.57
ODOM 0 0 0 0 0 0 83.73 pippo 83.73
ODOM 0 0 0 0 0 0 83.8899 pippo 83.8899
ODOM 0 0 0 0 0 0 84.0499 pippo 84.0499
ODOM 0 0 0 0 0 0 84.21 pippo 84.21
ODOM 0 0 0 0 0 0 84.3699 pippo 84.3699
ODOM 0 0 0 0 0 0 84.5299 pippo 84.5299
ODOM 0 0 0 0 0 0 84.69 pippo 84.69
ODOM 0 0 0 0 0 0 84.8499 pippo 84.8499
ODOM 0 0 0 0 0 0 85.0099 pippo 85.0099
ODOM 0 0 0 0 0 0 85.17 pippo 85.17
ODOM 0 0 0 0 0 0 85.3299 pippo 85.3299
ODOM 0 0 0 0 0 0 85.4899 pippo 85.4899
ODOM 0 0 0 0 0 0 85.65 pippo 85.65
ODOM 0 0 0 0 0 0 85.8099 pippo 85.8099
ODOM 0 0 0 0 0 0 85.9699 pippo 85.9699
ODOM 0 0 0 0 0 0 86.13 pippo 86.13
ODOM 0 0 0 0 0 0 86.29 pippo 86.29
ODOM 0 0 0 0 0 0 86.4499 pippo 86.4499
ODOM 0 0 0 0 0 0 86.61 pippo 86.61
ODOM 0 0 0 0 0 0 86.7699 pippo 86.7699
ODOM 0 0 0 0 0 0 86.9299 pippo 86.9299
ODOM 0 0 0 0 0 0 87.09 pippo 87.09
ODOM 0 0 0 0 0 0 87.2499 pippo 87.2499
ODOM 0 0 0 0 0 0 87.4099 pippo 87.4099
ODOM 0 0 0 0 0 0 87.57 pippo 87.57
ODOM 0 0 0 0 0 0 87.7299 pippo 87.7299
ODOM 0 0 0 0 0 0 87.8899 pippo 87.8899
ODOM 0 0 0 0 0 0 88.05 pippo 88.05
ODOM 0 0 0 0 0 0 88.2099 pippo 88.2099
ODOM 0 0 0 0 0 0 88.3699 pippo 88.3699
ODOM 0 0 0 0 0 0 88.53 pippo 88.53
ODOM 0 0 0 0 0 0 88.6899 pippo 88.6899
ODOM 0 0 0 0 0 0 88.8499 pippo 88.8499
ODOM 0 0 0 0 0 0 89.0299 pippo 89.0299
ODOM 0 0 0 0 0 0 89.2099 pippo 89.2099
ODOM 0 0 0 0 0 0 89.37 pippo 89.37
ODOM 0 0 0 0 0 0 89.5299 pippo 89.5299
ODOM 0 0 0 0 0 0 89.71 pippo 89.71
ODOM 0 0 0 0 0 0 89.9099 pippo 89.9099
ODOM 0 0 0 0 0 0 90.0999 pippo 90.0999
ODOM 0 0 0 0 0 0 90.27 pippo 90.27
ODOM 0 0 0 0 0 0 90.4299 pippo 90.4299
ODOM 0 0 0 0 0 0 90.5899 pippo 90.5899
ODOM 0 0 0 0 0 0 90.75 pippo 90.75
ODOM 0 0 0 0 0 0 90.9099 pippo 90.9099
ODOM 0 0 0 0 0 0 91.0699 pippo 91.0699
ODOM 0 0 0 0 0 0 91.23 pippo 91.23
ODOM 0 0 0 0 0 0 91.3899 pippo 91.3899
ODOM 0 0 0 0 0 0 91.55 pippo 91.55
ODOM 0 0 0 0 0 0 91.71 pippo 91.71
ODOM 0 0 0 0 0 0 91.87 pippo 91.87
ODOM 0 0 0 0 0 0 92.0299 pippo 92.0299
ODOM 0 0 0 0 0 0 92.19 pippo 92.19
ODOM 0 0 0 0 0 0 92.3499 pippo 92.3499
ODOM 0 0 0 0 0 0 92.5099 pippo 92.5099
ODOM 0 0 0 0 0 0 92.67 pippo 92.67
ODOM 0 0 0 0 0 0 92.8302 pippo 92.8302
ODOM 0 0 0 0 0 0 92.9899 pippo 92.9899
ODOM 0 0 0 0 0 0 93.15 pippo 93.15
ODOM 0 0 0 0 0 0 93.31 pippo 93.31
ODOM 0 0 0 0 0 0 93.4699 pippo 93.4699
ODOM 0 0 0 0 0 0 93.63 pippo 93.63
ODOM 0 0 0 0 0 0 93.7899 pippo 93.7899
ODOM 0 0 0 0 0 0 93.9499 pippo 93.9499
ODOM 0 0 0 0 0 0 94.11 pippo 94.11
ODOM 0 0 0 0 0 0 94.27 pippo 94.27
ODOM 0 0 0 0 0 0 94.4299 pippo 94.4299
ODOM 0 0 0 0 0 0 94.59 pippo 94.59
ODOM 0 0 0 0 0 0 94.75 pippo 94.75
ODOM 0 0 0 0 0 0 94.91 pippo 94.91
ODOM 0 0 0 0 0 0 95.07 pippo 95.07
ODOM 0 0 0 0 0 0 95.2299 pippo 95.2299
ODOM 0 0 0 0 0 0 95.3899 pippo 95.3899
ODOM 0 0 0 0 0 0 95.55 pippo 95.55
ODOM 0 0 0 0 0 0 95.7099 pippo 95.7099
ODOM 0 0 0 0 0 0 95.8699 pippo 95.8699
ODOM 0 0 0 0 0 0 96.03 pippo 96.03
ODOM 0 0 0 0 0 0 96.1899 pippo 96.1899
ODOM 0 0 0 0 0 0 96.3499 pippo 96.3499
ODOM 0 0 0 0 0 0 96.51 pippo 96.51
ODOM 0 0 0 0 0 0 96.6699 pippo 96.6699
ODOM 0 0 0 0 0 0 96.83 pippo 96.83
ODOM 0 0 0 0 0 0 96.99 pippo 96.99
ODOM 0 0 0 0 0 0 97.1499 pippo 97.1499
ODOM 0 0 0 0 0 0 97.3099 pippo 97.3099
ODOM 0 0 0 0 0 0 97.47 pippo 97.47
ODOM 0 0 0 0 0 0 97.6299 pippo 97.6299
ODOM 0 0 0 0 0 0 97.7899 pippo 97.7899
ODOM 0 0 0 0 0 0 97.95 pippo 97.95
ODOM 0 0 0 0 0 0 98.1299 pippo 98.1299
ODOM 0 0 0 0 0 0 98.3101 pippo 98.3101
ODOM 0 0 0 0 0 0 98.47 pippo 98.47
ODOM 0 0 0 0 0 0 98.6299 pippo 98.6299
ODOM 0 0 0 0 0 0 98.79 pippo 98.79
ODOM 0 0 0 0 0 0 98.95 pippo 98.95
ODOM 0 0 0 0 0 0 99.1099 pippo 99.1099
ODOM 0 0 0 0 0 0 99.27 pippo 99.27
ODOM 0 0 0 0 0 0 99.43 pippo 99.43
ODOM 0 0 0 0 0 0 99.5899 pippo 99.5899
ODOM 0 0 0 0 0 0 99.75 pippo 99.75
ODOM 0 0 0 0 0 0 99.9099 pippo 99.9099
ODOM 0 0 0 0 0 0 100.07 pippo 100.07
ODOM 0 0 0 0 0 0 100.23 pippo 100.23
ODOM 0 0 0 0 0 0 100.39 pippo 100.39
ODOM 0 0 0 0 0 0 100.57 pippo 100.57
ODOM 0 0 0 0 0 0 100.77 pippo 100.77
ODOM 0 0 0 0 0 0 100.96 pippo 100.96
ODOM 0 0 0 0 0 0 101.13 pippo 101.13
ODOM 0 0 0 0 0 0 101.29 pippo 101.29
ODOM 0 0 0 0 0 0 101.45 pippo 101.45
ODOM 0 0 0 0 0 0 101.61 pippo 101.61
ODOM 0 0 0 0 0 0 101.77 pippo 101.77
ODOM 0 0 0 0 0 0 101.93 pippo 101.93
ODOM 0 0 0 0 0 0 102.09 pippo 102.09
ODOM 0 0 0 0 0 0 102.25 pippo 102.25
ODOM 0 0 0 0 0 0 102.41 pippo 102.41
ODOM 0 0 0 0 0 0 102.57 pippo 102.57
ODOM 0 0 0 0 0 0 102.73 pippo 102.73
ODOM 0 0 0 0 0 0 102.89 pippo 102.89
ODOM 0 0 0 0 0 0 103.05 pippo 103.05
ODOM 0 0 0 0 0 0 103.21 pippo 103.21
ODOM 0 0 0 0 0 0 103.37 pippo 103.37
ODOM 0 0 0 0 0 0 103.53 pippo 103.53
ODOM 0 0 0 0 0 0 103.69 pippo 103.69
ODOM 0 0 0 0 0 0 103.85 pippo 103.85
ODOM 0 0 0 0 0 0 104.01 pippo 104.01
ODOM 0 0 0 0 0 0 104.17 pippo 104.17
ODOM 0 0 0 0 0 0 104.33 pippo 104.33
ODOM 0 0 0 0 0 0 104.49 pippo 104.49
ODOM 0 0 0 0 0 0 104.65 pippo 104.65
ODOM 0 0 0 0 0 0 104.81 pippo 104.81
ODOM 0 0 0 0 0 0 104.97 pippo 104.97
ODOM 0 0 0 0 0 0 105.13 pippo 105.13
ODOM 0 0 0 0 0 0 105.29 pippo 105.29
ODOM 0 0 0 0 0 0 105.45 pippo 105.45
ODOM 0 0 0 0 0 0 105.61 pippo 105.61
ODOM 0 0 0 0 0 0 105.77 pippo 105.77
ODOM 0 0 0 0 0 0 105.93 pippo 105.93
ODOM 0 0 0 0 0 0 106.09 pippo 106.09
ODOM 0 0 0 0 0 0 106.25 pippo 106.25
ODOM 0 0 0 0 0 0 106.41 pippo 106.41
ODOM 0 0 0 0 0 0 106.57 pippo 106.57
ODOM 0 0 0 0 0 0 106.73 pippo 106.73
ODOM 0 0 0 0 0 0 106.89 pippo 106.89
ODOM 0 0 0 0 0 0 107.05 pippo 107.05
ODOM 0 0 0 0 0 0 107.21 pippo 107.21
ODOM 0 0 0 0 0 0 107.39 pippo 107.39
ODOM 0 0 0 0 0 0 107.57 pippo 107.57
ODOM 0 0 0 0 0 0 107.73 pippo 107.73
ODOM 0 0 0 0 0 0 107.89 pippo 107.89
ODOM 0 0 0 0 0 0 108.05 pippo 108.05
ODOM 0 0 0 0 0 0 108.21 pippo 108.21
ODOM 0 0 0 0 0 0 108.37 pippo 108.37
ODOM 0 0 0 0 0 0 108.53 pippo 108.53
ODOM 0 0 0 0 0 0 108.69 pippo 108.69
ODOM 0 0 0 0 0 0 108.85 pippo 108.85
ODOM 0 0 0 0 0 0 109.01 pippo 109.01
ODOM 0 0 0 0 0 0 109.17 pippo 109.17
ODOM 0 0 0 0 0 0 109.33 pippo 109.33
ODOM 0 0 0 0 0 0 109.49 pippo 109.49
ODOM 0 0 0 0 0 0 109.65 pippo 109.65
ODOM 0 0 0 0 0 0 109.81 pippo 109.81
ODOM 0 0 0 0 0 0 109.97 pippo 109.97
ODOM 0 0 0 0 0 0 110.13 pippo 110.13
ODOM 0 0 0 0 0 0 110.29 pippo 110.29
ODOM 0 0 0 0 0 0 110.45 pippo 110.45
ODOM 0 0 0 0 0 0 110.61 pippo 110.61
ODOM 0 0 0 0 0 0 110.77 pippo 110.77
ODOM 0 0 0 0 0 0 110.93 pippo 110.93
ODOM 0 0 0 0 0 0 111.09 pippo 111.09
ODOM 0 0 0 0 0 0 111.25 pippo 111.25
ODOM 0 0 0 0 0 0 111.41 pippo 111.41
ODOM 0 0 0 0 0 0 111.59 pippo 111.59
ODOM 0 0 0 0 0 0 111.79 pippo 111.79
ODOM 0 0 0 0 0 0 111.98 pippo 111.98
ODOM 0 0 0 0 0 0 112.15 pippo 112.15
ODOM 0 0 0 0 0 0 112.31 pippo 112.31
ODOM 0 0 0 0 0 0 112.47 pippo 112.47
ODOM 0 0 0 0 0 0 112.63 pippo 112.63
ODOM 0 0 0 0 0 0 112.79 pippo 112.79
ODOM 0 0 0 0 0 0 112.95 pippo 112.95
ODOM 0 0 0 0 0 0 113.11 pippo 113.11
ODOM 0 0 0 0 0 0 113.27 pippo 113.27
ODOM 0 0 0 0 0 0 113.43 pippo 113.43
ODOM 0 0 0 0 0 0 113.59 pippo 113.59
ODOM 0 0 0 0 0 0 113.75 pippo 113.75
ODOM 0 0 0 0 0 0 113.91 pippo 113.91
ODOM 0 0 0 0 0 0 114.07 pippo 114.07
ODOM 0 0 0 0 0 0 114.23 pippo 114.23
ODOM 0 0 0 0 0 0 114.39 pippo 114.39
ODOM 0 0 0 0 0 0 114.55 pippo 114.55
ODOM 0 0 0 0 0 0 114.71 pippo 114.71
ODOM 0 0 0 0 0 0 114.87 pippo 114.87
ODOM 0 0 0 0 0 0 115.03 pippo 115.03
ODOM 0 0 0 0 0 0 115.19 pippo 115.19
ODOM 0 0 0 0 0 0 115.35 pippo 115.35
ODOM 0 0 0 0 0 0 115.51 pippo 115.51
ODOM 0 0 0 0 0 0 115.67 pippo 115.67
ODOM 0 0 0 0 0 0 115.83 pippo 115.83
ODOM 0 0 0 0 0 0 115.99 pippo 115.99
ODOM 0 0 0 0 0 0 116.15 pippo 116.15
ODOM 0 0 0 0 0 0 116.31 pippo 116.31
ODOM 0 0 0 0 0 0 116.47 pippo 116.47
ODOM 0 0 0 0 0 0 116.63 pippo 116.63
ODOM 0 0 0 0 0 0 116.79 pippo 116.79
ODOM 0 0 0 0 0 0 116.95 pippo 116.95
ODOM 0 0 0 0 0 0 117.11 pippo 117.11
ODOM 0 0 0 0 0 0 117.27 pippo 117.27
ODOM 0 0 0 0 0 0 117.43 pippo 117.43
ODOM 0 0 0 0 0 0 117.59 pippo 117.59
ODOM 0 0 0 0 0 0 117.75 pippo 117.75
ODOM 0 0 0 0 0 0 117.91 pippo 117.91
ODOM 0 0 0 0 0 0 118.07 pippo 118.07
ODOM 0 0 0 0 0 0 118.23 pippo 118.23
ODOM 0 0 0 0 0 0 118.39 pippo 118.39
ODOM 0 0 0 0 0 0 118.55 pippo 118.55
ODOM 0 0 0 0 0 0 118.71 pippo 118.71
ODOM 0 0 0 0 0 0 118.87 pippo 118.87
ODOM 0 0 0 0 0 0 119.03 pippo 119.03
ODOM 0 0 0 0 0 0 119.19 pippo 119.19
ODOM 0 0 0 0 0 0 119.35 pippo 119.35
ODOM 0 0 0 0 0 0 119.51 pippo 119.51
ODOM 0 0 0 0 0 0 119.67 pippo 119.67
ODOM 0 0 0 0 0 0 119.83 pippo 119.83
ODOM 0 0 0 0 0 0 119.99 pippo 119.99
ODOM 0 0 0 0 0 0 120.15 pippo 120.15
ODOM 0 0 0 0 0 0 120.31 pippo 120.31
ODOM 0 0 0 0 0 0 120.47 pippo 120.47
ODOM 0 0 0 0 0 0 120.63 pippo 120.63
ODOM 0 0 0 0 0 0 120.79 pippo 120.79
ODOM 0 0 0 0 0 0 120.95 pippo 120.95
ODOM 0 0 0 0 0 0 121.13 pippo 121.13
ODOM 0 0 0 0 0 0 121.31 pippo 121.31
ODOM 0 0 0 0 0 0 121.47 pippo 121.47
ODOM 0 0 0 0 0 0 121.63 pippo 121.63
ODOM 0 0 0 0 0 0 121.79 pippo 121.79
ODOM 0 0 0 0 0 0 121.95 pippo 121.95
ODOM 0 0 0 0 0 0 122.11 pippo 122.11
ODOM 0 0 0 0 0 0 122.27 pippo 122.27
ODOM 0 0 0 0 0 0 122.45 pippo 122.45
ODOM 0 0 0 0 0 0 122.65 pippo 122.65
ODOM 0 0 0 0 0 0 122.84 pippo 122.84
ODOM 0 0 0 0 0 0 123.01 pippo 123.01
ODOM 0 0 0 0 0 0 123.17 pippo 123.17
ODOM 0 0 0 0 0 0 123.33 pippo 123.33
ODOM 0 0 0 0 0 0 123.49 pippo 123.49
ODOM 0 0 0 0 0 0 123.65 pippo 123.65
ODOM 0 0 0 0 0 0 123.81 pippo 123.81
ODOM 0 0 0 0 0 0 123.97 pippo 123.97
ODOM 0 0 0 0 0 0 124.13 pippo 124.13
ODOM 0 0 0 0 0 0 124.29 pippo 124.29
ODOM 0 0 0 0 0 0 124.45 pippo 124.45
ODOM 0 0 0 0 0 0 124.61 pippo 124.61
ODOM 0 0 0 0 0 0 124.77 pippo 124.77
ODOM 0 0 0 0 0 0 124.93 pippo 124.93
ODOM 0 0 0 0 0 0 125.09 pippo 125.09
ODOM 0 0 0 0 0 0 125.25 pippo 125.25
ODOM 0 0 0 0 0 0 125.41 pippo 125.41
ODOM 0 0 0 0 0 0 125.57 pippo 125.57
ODOM 0 0 0 0 0 0 125.73 pippo 125.73
ODOM 0 0 0 0 0 0 125.89 pippo 125.89
ODOM 0 0 0 0 0 0 126.05 pippo 126.05
ODOM 0 0 0 0 0 0 126.21 pippo 126.21
ODOM 0 0 0 0 0 0 126.37 pippo 126.37
ODOM 0 0 0 0 0 0 126.53 pippo 126.53
ODOM 0 0 0 0 0 0 126.69 pippo 126.69
ODOM 0 0 0 0 0 0 126.85 pippo 126.85
ODOM 0 0 0 0 0 0 127.01 pippo 127.01
ODOM 0 0 0 0 0 0 127.17 pippo 127.17
ODOM 0 0 0 0 0 0 127.33 pippo 127.33
ODOM 0 0 0 0 0 0 127.49 pippo 127.49
ODOM 0 0 0 0 0 0 127.65 pippo 127.65
ODOM 0 0 0 0 0 0 127.81 pippo 127.81
ODOM 0 0 0 0 0 0 127.97 pippo 127.97
ODOM 0 0 0 0 0 0 128.13 pippo 128.13
ODOM 0 0 0 0 0 0 128.29 pippo 128.29
ODOM 0 0 0 0 0 0 128.45 pippo 128.45
ODOM 0 0 0 0 0 0 128.61 pippo 128.61
ODOM 0 0 0 0 0 0 128.77 pippo 128.77
ODOM 0 0 0 0 0 0 128.93 pippo 128.93
ODOM 0 0 0 0 0 0 129.09 pippo 129.09
ODOM 0 0 0 0 0 0 129.25 pippo 129.25
ODOM 0 0 0 0 0 0 129.41 pippo 129.41
ODOM 0 0 0 0 0 0 129.57 pippo 129.57
ODOM 0 0 0 0 0 0 129.73 pippo 129.73
ODOM 0 0 0 0 0 0 129.89 pippo 129.89
ODOM 0 0 0 0 0 0 130.05 pippo 130.05
ODOM 0 0 0 0 0 0 130.21 pippo 130.21
ODOM 0 0 0 0 0 0 130.39 pippo 130.39
ODOM 0 0 0 0 0 0 130.57 pippo 130.57
ODOM 0 0 0 0 0 0 130.73 pippo 130.73
ODOM 0 0 0 0 0 0 130.89 pippo 130.89
ODOM 0 0 0 0 0 0 131.05 pippo 131.05
ODOM 0 0 0 0 0 0 131.21 pippo 131.21
ODOM 0 0 0 0 0 0 131.37 pippo 131.37
ODOM 0 0 0 0 0 0 131.53 pippo 131.53
ODOM 0 0 0 0 0 0 131.69 pippo 131.69
ODOM 0 0 0 0 0 0 131.85 pippo 131.85
ODOM 0 0 0 0 0 0 132.01 pippo 132.01
ODOM 0 0 0 0 0 0 132.17 pippo 132.17
ODOM 0 0 0 0 0 0 132.33 pippo 132.33
ODOM 0 0 0 0 0 0 132.49 pippo 132.49
ODOM 0 0 0 0 0 0 132.65 pippo 132.65
ODOM 0 0 0 0 0 0 132.81 pippo 132.81
ODOM 0 0 0 0 0 0 132.97 pippo 132.97
ODOM 0 0 0 0 0 0 133.13 pippo 133.13
ODOM 0 0 0 0 0 0 133.31 pippo 133.31
ODOM 0 0 0 0 0 0 133.51 pippo 133.51
ODOM 0 0 0 0 0 0 133.7 pippo 133.7
ODOM 0 0 0 0 0 0 133.87 pippo 133.87
ODOM 0 0 0 0 0 0 134.03 pippo 134.03
ODOM 0 0 0 0 0 0 134.19 pippo 134.19
ODOM 0 0 0 0 0 0 134.35 pippo 134.35
ODOM 0 0 0 0 0 0 134.51 pippo 134.51
ODOM 0 0 0 0 0 0 134.67 pippo 134.67
ODOM 0 0 0 0 0 0 134.83 pippo 134.83
ODOM 0 0 0 0 0 0 134.99 pippo 134.99
ODOM 0 0 0 0 0 0 135.15 pippo 135.15
ODOM 0 0 0 0 0 0 135.31 pippo 135.31
ODOM 0 0 0 0 0 0 135.47 pippo 135.47
ODOM 0 0 0 0 0 0 135.63 pippo 135.63
ODOM 0 0 0 0 0 0 135.79 pippo 135.79
ODOM 0 0 0 0 0 0 135.95 pippo 135.95
ODOM 0 0 0 0 0 0 136.11 pippo 136.11
ODOM 0 0 0 0 0 0 136.27 pippo 136.27
ODOM 0 0 0 0 0 0 136.43 pippo 136.43
ODOM 0 0 0 0 0 0 136.59 pippo 136.59
ODOM 0 0 0 0 0 0 136.75 pippo 136.75
ODOM 0 0 0 0 0 0 136.91 pippo 136.91
ODOM 0 0 0 0 0 0 137.07 pippo 137.07
ODOM 0 0 0 0 0 0 137.23 pippo 137.23
ODOM 0 0 0 0 0 0 137.39 pippo 137.39
ODOM 0 0 0 0 0 0 137.55 pippo 137.55
ODOM 0 0 0 0 0 0 137.71 pippo 137.71
ODOM 0 0 0 0 0 0 137.87 pippo 137.87
ODOM 0 0 0 0 0 0 138.03 pippo 138.03
ODOM 0 0 0 0 0 0 138.19 pippo 138.19
ODOM 0 0 0 0 0 0 138.35 pippo 138.35
ODOM 0 0 0 0 0 0 138.51 pippo 138.51
ODOM 0 0 0 0 0 0 138.67 pippo 138.67
ODOM 0 0 0 0 0 0 138.83 pippo 138.83
ODOM 0 0 0 0 0 0 138.99 pippo 138.99
ODOM 0 0 0 0 0 0 139.15 pippo 139.15
ODOM 0 0 0 0 0 0 139.31 pippo 139.31
ODOM 0 0 0 0 0 0 139.47 pippo 139.47
ODOM 0 0 0 0 0 0 139.63 pippo 139.63
ODOM 0 0 0 0 0 0 139.79 pippo 139.79
ODOM 0 0 0 0 0 0 139.95 pippo 139.95
ODOM 0 0 0 0 0 0 140.11 pippo 140.11
ODOM 0 0 0 0 0 0 140.27 pippo 140.27
ODOM 0 0 0 0 0 0 140.43 pippo 140.43
ODOM 0 0 0 0 0 0 140.59 pippo 140.59
ODOM 0 0 0 0 0 0 140.75 pippo 140.75
ODOM 0 0 0 0 0 0 140.91 pippo 140.91
ODOM 0 0 0 0 0 0 141.07 pippo 141.07
ODOM 0 0 0 0 0 0 141.23 pippo 141.23
ODOM 0 0 0 0 0 0 141.39 pippo 141.39
ODOM 0 0 0 0 0 0 141.55 pippo 141.55
ODOM 0 0 0 0 0 0 141.71 pippo 141.71
ODOM 0 0 0 0 0 0 141.87 pippo 141.87
ODOM 0 0 0 0 0 0 142.03 pippo 142.03
ODOM 0 0 0 0 0 0 142.19 pippo 142.19
ODOM 0 0 0 0 0 0 142.35 pippo 142.35
ODOM 0 0 0 0 0 0 142.51 pippo 142.51
ODOM 0 0 0 0 0 0 142.67 pippo 142.67
ODOM 0 0 0 0 0 0 142.83 pippo 142.83
ODOM 0 0 0 0 0 0 142.99 pippo 142.99
ODOM 0 0 0 0 0 0 143.15 pippo 143.15
ODOM 0 0 0 0 0 0 143.31 pippo 143.31
ODOM 0 0 0 0 0 0 143.47 pippo 143.47
ODOM 0 0 0 0 0 0 143.63 pippo 143.63
ODOM 0 0 0 0 0 0 143.79 pippo 143.79
ODOM 0 0 0 0 0 0 143.95 pippo 143.95
ODOM 0 0 0 0 0 0 144.13 pippo 144.13
ODOM 0 0 0 0 0 0 144.33 pippo 144.33
ODOM 0 0 0 0 0 0 144.53 pippo 144.53
ODOM 0 0 0 0 0 0 144.72 pippo 144.72
ODOM 0 0 0 0 0 0 144.89 pippo 144.89
ODOM 0 0 0 0 0 0 145.05 pippo 145.05
ODOM 0 0 0 0 0 0 145.21 pippo 145.21
ODOM 0 0 0 0 0 0 145.37 pippo 145.37
ODOM 0 0 0 0 0 0 145.53 pippo 145.53
ODOM 0 0 0 0 0 0 145.69 pippo 145.69
ODOM 0 0 0 0 0 0 145.85 pippo 145.85
ODOM 0 0 0 0 0 0 146.01 pippo 146.01
ODOM 0 0 0 0 0 0 146.17 pippo 146.17
ODOM 0 0 0 0 0 0 146.33 pippo 146.33
ODOM 0 0 0 0 0 0 146.49 pippo 146.49
ODOM 0 0 0 0 0 0 146.65 pippo 146.65
ODOM 0 0 0 0 0 0 146.81 pippo 146.81
ODOM 0 0 0 0 0 0 146.97 pippo 146.97
ODOM 0 0 0 0 0 0 147.13 pippo 147.13
ODOM 0 0 0 0 0 0 147.29 pippo 147.29
ODOM 0 0 0 0 0 0 147.45 pippo 147.45
ODOM 0 0 0 0 0 0 147.61 pippo 147.61
ODOM 0 0 0 0 0 0 147.77 pippo 147.77
ODOM 0 0 0 0 0 0 147.93 pippo 147.93
ODOM 0 0 0 0 0 0 148.09 pippo 148.09
ODOM 0 0 0 0 0 0 148.25 pippo 148.25
ODOM 0 0 0 0 0 0 148.41 pippo 148.41
ODOM 0 0 0 0 0 0 148.57 pippo 148.57
ODOM 0 0 0 0 0 0 148.73 pippo 148.73
ODOM 0 0 0 0 0 0 148.89 pippo 148.89
ODOM 0 0 0 0 0 0 149.05 pippo 149.05
ODOM 0 0 0 0 0 0 149.21 pippo 149.21
ODOM 0 0 0 0 0 0 149.37 pippo 149.37
ODOM 0 0 0 0 0 0 149.53 pippo 149.53
ODOM 0 0 0 0 0 0 149.69 pippo 149.69
ODOM 0 0 0 0 0 0 149.85 pippo 149.85
ODOM 0 0 0 0 0 0 150.01 pippo 150.01
ODOM 0 0 0 0 0 0 150.17 pippo 150.17
ODOM 0 0 0 0 0 0 150.33 pippo 150.33
ODOM 0 0 0 0 0 0 150.49 pippo 150.49
ODOM 0 0 0 0 0 0 150.65 pippo 150.65
ODOM 0 0 0 0 0 0 150.81 pippo 150.81
ODOM 0 0 0 0 0 0 150.97 pippo 150.97
ODOM 0 0 0 0 0 0 151.13 pippo 151.13
ODOM 0 0 0 0 0 0 151.29 pippo 151.29
ODOM 0 0 0 0 0 0 151.45 pippo 151.45
ODOM 0 0 0 0 0 0 151.61 pippo 151.61
ODOM 0 0 0 0 0 0 151.77 pippo 151.77
ODOM 0 0 0 0 0 0 151.93 pippo 151.93
ODOM 0 0 0 0 0 0 152.09 pippo 152.09
ODOM 0 0 0 0 0 0 152.25 pippo 152.25
ODOM 0 0 0 0 0 0 152.41 pippo 152.41
ODOM 0 0 0 0 0 0 152.57 pippo 152.57
ODOM 0 0 0 0 0 0 152.73 pippo 152.73
ODOM 0 0 0 0 0 0 152.89 pippo 152.89
ODOM 0 0 0 0 0 0 153.05 pippo 153.05
ODOM 0 0 0 0 0 0 153.23 pippo 153.23
ODOM 0 0 0 0 0 0 153.41 pippo 153.41
ODOM 0 0 0 0 0 0 153.57 pippo 153.57
ODOM 0 0 0 0 0 0 153.73 pippo 153.73
ODOM 0 0 0 0 0 0 153.89 pippo 153.89
ODOM 0 0 0 0 0 0 154.05 pippo 154.05
ODOM 0 0 0 0 0 0 154.21 pippo 154.21
ODOM 0 0 0 0 0 0 154.37 pippo 154.37
ODOM 0 0 0 0 0 0 154.53 pippo 154.53
ODOM 0 0 0 0 0 0 154.69 pippo 154.69
ODOM 0 0 0 0 0 0 154.85 pippo 154.85
ODOM 0 0 0 0 0 0 155.01 pippo 155.01
ODOM 0 0 0 0 0 0 155.19 pippo 155.19
ODOM 0 0 0 0 0 0 155.39 pippo 155.39
ODOM 0 0 0 0 0 0 155.58 pippo 155.58
ODOM 0 0 0 0 0 0 155.75 pippo 155.75
ODOM 0 0 0 0 0 0 155.91 pippo 155.91
ODOM 0 0 0 0 0 0 156.07 pippo 156.07
ODOM 0 0 0 0 0 0 156.23 pippo 156.23
ODOM 0 0 0 0 0 0 156.39 pippo 156.39
ODOM 0 0 0 0 0 0 156.55 pippo 156.55
ODOM 0 0 0 0 0 0 156.71 pippo 156.71
ODOM 0 0 0 0 0 0 156.87 pippo 156.87
ODOM 0 0 0 0 0 0 157.03 pippo 157.03
ODOM 0 0 0 0 0 0 157.19 pippo 157.19
ODOM 0 0 0 0 0 0 157.35 pippo 157.35
ODOM 0 0 0 0 0 0 157.51 pippo 157.51
ODOM 0 0 0 0 0 0 157.67 pippo 157.67
ODOM 0 0 0 0 0 0 157.83 pippo 157.83
ODOM 0 0 0 0 0 0 157.99 pippo 157.99
ODOM 0 0 0 0 0 0 158.15 pippo 158.15
ODOM 0 0 0 0 0 0 158.31 pippo 158.31
ODOM 0 0 0 0 0 0 158.47 pippo 158.47
ODOM 0 0 0 0 0 0 158.63 pippo 158.63
ODOM 0 0 0 0 0 0 158.79 pippo 158.79
ODOM 0 0 0 0 0 0 158.95 pippo 158.95
ODOM 0 0 0 0 0 0 159.11 pippo 159.11
ODOM 0 0 0 0 0 0 159.27 pippo 159.27
ODOM 0 0 0 0 0 0 159.43 pippo 159.43
ODOM 0 0 0 0 0 0 159.59 pippo 159.59
ODOM 0 0 0 0 0 0 159.75 pippo 159.75
ODOM 0 0 0 0 0 0 159.91 pippo 159.91
ODOM 0 0 0 0 0 0 160.07 pippo 160.07
ODOM 0 0 0 0 0 0 160.23 pippo 160.23
ODOM 0 0 0 0 0 0 160.39 pippo 160.39
ODOM 0 0 0 0 0 0 160.55 pippo 160.55
ODOM 0 0 0 0 0 0 160.71 pippo 160.71
ODOM 0 0 0 0 0 0 160.87 pippo 160.87
ODOM 0 0 0 0 0 0 161.03 pippo 161.03
ODOM 0 0 0 0 0 0 161.19 pippo 161.19
ODOM 0 0 0 0 0 0 161.35 pippo 161.35
ODOM 0 0 0 0 0 0 161.51 pippo 161.51
ODOM 0 0 0 0 0 0 161.67 pippo 161.67
ODOM 0 0 0 0 0 0 161.83 pippo 161.83
ODOM 0 0 0 0 0 0 161.99 pippo 161.99
ODOM 0 0 0 0 0 0 162.15 pippo 162.15
ODOM 0 0 0 0 0 0 162.31 pippo 162.31
ODOM 0 0 0 0 0 0 162.49 pippo 162.49
ODOM 0 0 0 0 0 0 162.67 pippo 162.67
ODOM 0 0 0 0 0 0 162.83 pippo 162.83
ODOM 0 0 0 0 0 0 162.99 pippo 162.99
ODOM 0 0 0 0 0 0 163.15 pippo 163.15
ODOM 0 0 0 0 0 0 163.31 pippo 163.31
ODOM 0 0 0 0 0 0 163.47 pippo 163.47
ODOM 0 0 0 0 0 0 163.63 pippo 163.63
ODOM 0 0 0 0 0 0 163.79 pippo 163.79
ODOM 0 0 0 0 0 0 163.95 pippo 163.95
ODOM 0 0 0 0 0 0 164.11 pippo 164.11
ODOM 0 0 0 0 0 0 164.27 pippo 164.27
ODOM 0 0 0 0 0 0 164.43 pippo 164.43
ODOM 0 0 0 0 0 0 164.59 pippo 164.59
ODOM 0 0 0 0 0 0 164.75 pippo 164.75
ODOM 0 0 0 0 0 0 164.91 pippo 164.91
ODOM 0 0 0 0 0 0 165.07 pippo 165.07
ODOM 0 0 0 0 0 0 165.23 pippo 165.23
ODOM 0 0 0 0 0 0 165.39 pippo 165.39
ODOM 0 0 0 0 0 0 165.55 pippo 165.55
ODOM 0 0 0 0 0 0 165.71 pippo 165.71
ODOM 0 0 0 0 0 0 165.87 pippo 165.87
ODOM 0 0 0 0 0 0 166.03 pippo 166.03
ODOM 0 0 0 0 0 0 166.21 pippo 166.21
ODOM 0 0 0 0 0 0 166.41 pippo 166.41
ODOM 0 0 0 0 0 0 166.6 pippo 166.6
ODOM 0 0 0 0 0 0 166.77 pippo 166.77
ODOM 0 0 0 0 0 0 166.93 pippo 166.93
ODOM 0 0 0 0 0 0 167.09 pippo 167.09
ODOM 0 0 0 0 0 0 167.25 pippo 167.25
ODOM 0 0 0 0 0 0 167.41 pippo 167.41
ODOM 0 0 0 0 0 0 167.57 pippo 167.57
ODOM 0 0 0 0 0 0 167.73 pippo 167.73
ODOM 0 0 0 0 0 0 167.89 pippo 167.89
ODOM 0 0 0 0 0 0 168.05 pippo 168.05
ODOM 0 0 0 0 0 0 168.21 pippo 168.21
ODOM 0 0 0 0 0 0 168.37 pippo 168.37
ODOM 0 0 0 0 0 0 168.53 pippo 168.53
ODOM 0 0 0 0 0 0 168.69 pippo 168.69
ODOM 0 0 0 0 0 0 168.85 pippo 168.85
ODOM 0 0 0 0 0 0 169.01 pippo 169.01
ODOM 0 0 0 0 0 0 169.17 pippo 169.17
ODOM 0 0 0 0 0 0 169.33 pippo 169.33
ODOM 0 0 0 0 0 0 169.49 pippo 169.49
ODOM 0 0 0 0 0 0 169.65 pippo 169.65
ODOM 0 0 0 0 0 0 169.81 pippo 169.81
ODOM 0 0 0 0 0 0 169.97 pippo 169.97
ODOM 0 0 0 0 0 0 170.13 pippo 170.13
ODOM 0 0 0 0 0 0 170.29 pippo 170.29
ODOM 0 0 0 0 0 0 170.45 pippo 170.45
ODOM 0 0 0 0 0 0 170.61 pippo 170.61
ODOM 0 0 0 0 0 0 170.77 pippo 170.77
ODOM 0 0 0 0 0 0 170.93 pippo 170.93
ODOM 0 0 0 0 0 0 171.09 pippo 171.09
ODOM 0 0 0 0 0 0 171.25 pippo 171.25
ODOM 0 0 0 0 0 0 171.41 pippo 171.41
ODOM 0 0 0 0 0 0 171.57 pippo 171.57
ODOM 0 0 0 0 0 0 171.73 pippo 171.73
ODOM 0 0 0 0 0 0 171.89 pippo 171.89
ODOM 0 0 0 0 0 0 172.05 pippo 172.05
ODOM 0 0 0 0 0 0 172.21 pippo 172.21
ODOM 0 0 0 0 0 0 172.37 pippo 172.37
ODOM 0 0 0 0 0 0 172.53 pippo 172.53
ODOM 0 0 0 0 0 0 172.69 pippo 172.69
ODOM 0 0 0 0 0 0 172.85 pippo 172.85
ODOM 0 0 0 0 0 0 173.01 pippo 173.01
ODOM 0 0 0 0 0 0 173.17 pippo 173.17
ODOM 0 0 0 0 0 0 173.33 pippo 173.33
ODOM 0 0 0 0 0 0 173.49 pippo 173.49
ODOM 0 0 0 0 0 0 173.65 pippo 173.65
ODOM 0 0 0 0 0 0 173.81 pippo 173.81
ODOM 0 0 0 0 0 0 173.97 pippo 173.97
ODOM 0 0 0 0 0 0 174.13 pippo 174.13
ODOM 0 0 0 0 0 0 174.29 pippo 174.29
ODOM 0 0 0 0 0 0 174.45 pippo 174.45
ODOM 0 0 0 0 0 0 174.61 pippo 174.61
ODOM 0 0 0 0 0 0 174.77 pippo 174.77
ODOM 0 0 0 0 0 0 174.93 pippo 174.93
ODOM 0 0 0 0 0 0 175.09 pippo 175.09
ODOM 0 0 0 0 0 0 175.25 pippo 175.25
ODOM 0 0 0 0 0 0 175.41 pippo 175.41
ODOM 0 0 0 0 0 0 175.57 pippo 175.57
ODOM 0 0 0 0 0 0 175.73 pippo 175.73
ODOM 0 0 0 0 0 0 175.89 pippo 175.89
ODOM 0 0 0 0 0 0 176.05 pippo 176.05
ODOM 0 0 0 0 0 0 176.23 pippo 176.23
ODOM 0 0 0 0 0 0 176.41 pippo 176.41
ODOM 0 0 0 0 0 0 176.57 pippo 176.57
ODOM 0 0 0 0 0 0 176.73 pippo 176.73
ODOM 0 0 0 0 0 0 176.89 pippo 176.89
ODOM 0 0 0 0 0 0 177.07 pippo 177.07
ODOM 0 0 0 0 0 0 177.27 pippo 177.27
ODOM 0 0 0 0 0 0 177.46 pippo 177.46
ODOM 0 0 0 0 0 0 177.63 pippo 177.63
ODOM 0 0 0 0 0 0 177.79 pippo 177.79
ODOM 0 0 0 0 0 0 177.95 pippo 177.95
ODOM 0 0 0 0 0 0 178.11 pippo 178.11
ODOM 0.00731953 0.000604275 0.024582 0 0 0 178.27 pippo 178.27
ODOM 0.0263826 0.00109418 0.049164 0 0 0 178.43 pippo 178.43
ODOM 0.0718665 0.00399392 0.0676 0 0 0 178.59 pippo 178.59
ODOM 0.173341 0.0123452 0.086037 0 0 0 178.75 pippo 178.75
ODOM 0.300792 0.0250236 0.104473 0 0 0 178.91 pippo 178.91
ODOM 0.393771 0.0359797 0.116764 0 0 0 179.07 pippo 179.07
ODOM 0.512412 0.0514079 0.135201 0 0 0 179.23 pippo 179.23
ODOM 0.626004 0.0678439 0.141347 0 0 0 179.39 pippo 179.39
ODOM 0.708674 0.0799606 0.147492 0 0 0 179.55 pippo 179.55
ODOM 0.830686 0.0989647 0.147492 0 0 0 179.71 pippo 179.71
ODOM 0.953284 0.116365 0.135201 0 0 0 179.87 pippo 179.87
ODOM 1.03919 0.128886 0.12291 0 0 0 180.03 pippo 180.03
FLASER 180 18.35 9.35 9.2 9.1 8.95 8.8 8.7 8.6 8.45 1.95 1.9 1.85 1.85 1.8 0.9 0.75 0.7 0.68 0.68 0.68 0.68 0.73 0.73 0.7 0.75 0.85 0.88 0.88 0.88 0.88 0.88 0.93 1.56 1.61 1.56 1.56 1.56 1.56 1.56 1.56 1.56 1.51 1.56 1.56 1.51 1.51 1.56 1.51 1.56 1.56 1.56 1.51 1.56 1.56 1.56 1.56 1.56 1.56 1.56 1.56 1.61 1.53 1.58 1.58 1.63 1.63 1.6 1.6 1.65 1.68 1.68 1.68 1.73 1.68 1.68 1.73 1.78 1.78 1.78 1.83 1.83 1.83 1.93 1.93 1.93 1.98 1.98 2.03 2.03 2.08 2.13 2.18 2.18 2.23 2.33 2.33 2.43 2.43 2.45 2.5 2.6 2.7 2.75 2.75 2.73 2.73 2.68 2.68 2.63 2.63 2.58 2.53 2.58 2.58 2.53 2.48 2.48 2.48 2.48 2.48 2.43 2.43 2.38 2.38 2.38 2.38 2.38 2.38 2.33 2.33 2.28 2.28 2.38 2.33 2.33 2.28 2.28 2.33 2.28 1.35 1.3 1.3 1.3 1.3 1.3 1.3 1.3 1.3 1.35 1.3 1.3 1.3 1.35 1.35 1.35 1.35 1.3 1.4 1.35 1.35 1.4 1.4 1.4 1.4 1.4 1.45 1.45 1.45 1.45 1.5 1.5 1.5 1.5 1.55 1.55 1.55 1.55 1.6 1.65 1.65 1.00539 0.140117 0.129187 1.00539 0.140117 0.129187 180.03 pippo 180.03
ODOM 1.00539 0.140117 0.129187 0 0 0 0 pippo 0
NEFF 30
ODOM 1.10979 0.152304 0.116896 0 0 0 180.19 pippo 180.19
ODOM 1.18015 0.161408 0.141478 0 0 0 180.35 pippo 180.35
ODOM 1.19512 0.163879 0.178351 0 0 0 180.51 pippo 180.51
ODOM 1.19021 0.163084 0.288971 0 0 0 180.67 pippo 180.67
ODOM 1.19089 0.16334 0.307407 0 0 0 180.83 pippo 180.83
ODOM 1.19181 0.163682 0.313553 0 0 0 180.99 pippo 180.99
ODOM 1.19181 0.163682 0.319698 0 0 0 181.15 pippo 181.15
ODOM 1.19181 0.163682 0.44261 0 0 0 181.31 pippo 181.31
ODOM 1.19181 0.163682 0.528647 0 0 0 181.47 pippo 181.47
ODOM 1.19181 0.163682 0.67614 0 0 0 181.63 pippo 181.63
FLASER 180 1.41 1.41 1.41 1.41 1.41 1.41 1.41 1.41 1.41 1.41 1.41 1.41 1.36 1.36 1.36 1.36 1.36 1.36 1.31 1.36 1.36 1.36 1.36 1.36 1.36 1.36 1.36 1.36 1.36 1.36 1.36 1.41 1.41 1.41 1.41 1.38 1.4 1.4 1.4 1.43 1.43 1.43 1.48 1.43 1.48 1.53 1.53 1.53 1.53 1.53 1.58 1.63 1.63 1.63 1.63 1.68 1.73 1.73 1.78 1.78 1.78 1.83 1.83 1.93 1.93 1.98 2.03 2.08 2.08 2.18 2.23 2.23 2.28 2.35 2.4 2.5 2.55 2.58 2.53 2.48 2.53 2.48 2.43 2.43 2.38 2.38 2.38 2.33 2.28 2.28 2.28 2.28 2.28 2.28 2.23 2.23 2.18 2.18 2.18 2.18 2.18 2.23 2.18 2.18 2.18 2.18 2.13 2.18 2.13 2.18 2.18 2.18 2.13 2.18 2.18 2.18 2.18 1.8 1.45 1.25 1.2 1.15 1.2 1.2 1.2 1.2 1.2 1.25 1.2 1.2 1.25 1.25 1.25 1.25 1.25 1.3 1.25 1.3 1.35 1.35 1.3 1.35 1.35 1.35 1.35 1.45 1.45 1.45 1.45 1.45 1.45 1.5 1.5 1.55 1.55 1.6 1.6 1.65 1.65 1.7 1.75 1.75 1.8 1.85 1.85 1.95 1.95 2.1 11.35 10.65 10.05 9.55 9.05 8.65 8.3 7.9 7.65 7.3 7.05 6.7 1.22736 0.135675 0.613774 1.22736 0.135675 0.613774 181.63 pippo 181.63
ODOM 1.22736 0.135675 0.613774 0 0 0 0 pippo 0
NEFF 29.8876
ODOM 1.22736 0.135675 0.730539 0 0 0 181.79 pippo 181.79
ODOM 1.22736 0.135675 0.822722 0 0 0 181.95 pippo 181.95
ODOM 1.22736 0.135675 0.945632 0 0 0 182.11 pippo 182.11
ODOM 1.22736 0.135675 1.0624 0 0 0 182.27 pippo 182.27
ODOM 1.22736 0.135675 1.14843 0 0 0 182.43 pippo 182.43
FLASER 180 1.41 1.41 1.41 1.38 1.43 1.43 1.43 1.43 1.46 1.46 1.46 1.48 1.51 1.51 1.48 1.51 1.53 1.53 1.58 1.58 1.58 1.63 1.63 1.68 1.68 1.68 1.73 1.78 1.78 1.83 1.83 1.88 1.88 1.93 1.98 2.03 2.08 2.13 2.18 2.18 2.2 2.3 2.4 2.45 2.5 2.55 2.53 2.53 2.48 2.48 2.48 2.38 2.38 2.43 2.38 2.33 2.33 2.28 2.33 2.28 2.28 2.28 2.28 2.23 2.18 2.23 2.23 2.23 2.18 2.18 2.18 2.18 2.13 2.18 2.18 2.18 2.13 2.18 2.18 2.13 2.18 2.18 2.13 2.18 2.18 2.05 1.65 1.35 1.25 1.2 1.2 1.15 1.2 1.2 1.2 1.2 1.2 1.25 1.25 1.25 1.25 1.25 1.3 1.25 1.3 1.3 1.3 1.3 1.3 1.35 1.35 1.35 1.4 1.4 1.4 1.45 1.45 1.45 1.5 1.5 1.5 1.5 1.55 1.65 1.6 1.65 1.65 1.7 1.7 1.8 1.8 1.85 1.9 1.9 1.95 2.05 11.4 10.8 10.2 9.65 9.1 8.75 8.35 8 7.65 7.35 7.15 6.9 6.65 6.45 6.25 6.05 5.85 5.7 5.55 5.4 5.15 5 4.85 4.8 4.7 4.65 4.65 4.5 4.45 4.35 4.35 4.25 4.15 4.05 4.05 3.95 3.9 3.85 3.8 3.75 3.7 3.65 3.6 3.5 1.23067 0.123139 1.17342 1.23067 0.123139 1.17342 182.43 pippo 182.43
ODOM 1.23067 0.123139 1.17342 0 0 0 0 pippo 0
NEFF 29.6484
ODOM 1.23067 0.123139 1.29633 0 0 0 182.59 pippo 182.59
ODOM 1.23067 0.123139 1.4008 0 0 0 182.75 pippo 182.75
ODOM 1.23114 0.128697 1.45611 0 0 0 182.91 pippo 182.91
ODOM 1.23438 0.188681 1.57288 0 0 0 183.07 pippo 183.07
ODOM 1.23094 0.271912 1.67735 0 0 0 183.23 pippo 183.23
FLASER 180 1.83 1.88 1.88 1.93 1.93 1.98 2.03 2.08 2.08 2.18 2.18 2.23 2.3 2.4 2.4 2.55 2.53 2.48 2.43 2.43 2.43 2.38 2.33 2.33 2.28 2.33 2.28 2.23 2.23 2.23 2.23 2.18 2.18 2.18 2.13 2.13 2.13 2.13 2.13 2.08 2.08 2.08 2.08 2.08 2.08 2.08 2.08 2.08 2.08 2.08 2.08 2.08 2.13 2.08 2.08 2.13 2.08 1.6 1.3 1.1 1.1 1.1 1.1 1.1 1.1 1.1 1.1 1.15 1.15 1.15 1.1 1.15 1.15 1.15 1.15 1.15 1.2 1.2 1.2 1.2 1.25 1.25 1.25 1.25 1.3 1.3 1.3 1.3 1.3 1.35 1.35 1.35 1.4 1.4 1.45 1.45 1.45 1.5 1.55 1.6 1.6 1.6 1.65 1.7 1.7 1.75 1.8 1.85 1.9 1.95 10.55 10 9.45 9.05 8.6 8.25 7.85 7.6 7.3 7.05 6.8 6.55 6.4 6.2 6 5.8 5.65 5.5 5.35 5.1 4.95 4.9 4.75 4.7 4.6 4.55 4.5 4.45 4.35 4.3 4.25 4.15 4.1 4.05 3.95 3.9 3.85 3.8 3.8 3.7 3.65 3.65 3.6 3.55 3.5 3.45 3.45 3.4 3.4 3.35 3.35 3.3 3.25 3.25 3.25 3.25 3.2 3.2 3.15 3.15 3.15 3.1 3.1 3.1 3.1 3.1 3.05 3.05 3.05 3 1.24481 0.222353 1.65068 1.24481 0.222353 1.65068 183.23 pippo 183.23
ODOM 1.24481 0.222353 1.65068 0 0 0 0 pippo 0
NEFF 29.5087
ODOM 1.24223 0.248608 1.6814 0 0 0 183.39 pippo 183.39
ODOM 1.23934 0.275026 1.70599 0 0 0 183.55 pippo 183.55
ODOM 1.21189 0.403694 1.85962 0 0 0 183.71 pippo 183.71
ODOM 1.18835 0.470543 1.93337 0 0 0 183.87 pippo 183.87
ODOM 1.16322 0.530023 2.01941 0 0 0 184.03 pippo 184.03
ODOM 1.13567 0.583159 2.07472 0 0 0 184.19 pippo 184.19
ODOM 1.12255 0.605461 2.12388 0 0 0 184.35 pippo 184.35
ODOM 1.09392 0.647815 2.18534 0 0 0 184.51 pippo 184.51
FLASER 180 1.88 1.88 1.88 1.83 0.85 0.85 0.8 0.85 0.8 0.85 0.8 0.8 0.8 0.8 0.8 0.8 0.8 0.8 0.8 0.75 0.8 0.8 0.75 0.8 0.75 0.75 0.8 0.8 0.8 0.8 0.8 0.8 0.8 0.85 0.8 0.8 0.8 0.8 0.8 0.85 0.8 0.85 0.85 0.85 0.85 0.85 0.9 0.85 0.9 0.9 0.9 0.9 0.95 0.9 0.95 0.95 1 1 1 1 1 1.05 1.1 1.05 1.05 1.05 1.1 1.15 1.15 1.2 1.2 1.25 1.25 1.3 1.3 1.35 1.4 1.45 1.45 9.5 9 8.6 8.25 7.85 7.55 7.25 7 6.75 6.55 6.3 6.1 5.9 5.75 5.6 5.4 5.3 5.15 5.05 4.95 4.85 4.6 4.5 4.45 4.3 4.25 4.15 4.2 4.15 4.1 4 3.95 3.85 3.85 3.8 3.75 3.7 3.6 3.6 3.55 3.5 3.5 3.4 3.4 3.35 3.3 3.3 3.3 3.25 3.25 3.2 3.15 3.15 3.15 3.15 3.1 3.1 3.05 3.05 3 3.05 3 3 3 3 3 3 2.95 2.95 2.95 2.95 2.95 2.95 2.95 2.95 2.95 2.95 2.95 2.95 2.95 3 2.95 3 3 3 3.05 3.05 3.05 3.05 3.1 3.1 3.15 3.15 3.15 3.2 3.2 3.25 3.25 3.3 3.3 3.35 1.10874 0.666009 2.21967 1.10874 0.666009 2.21967 184.51 pippo 184.51
ODOM 1.10874 0.666009 2.21967 0 0 0 0 pippo 0
NEFF 29.0665
ODOM 1.08477 0.697049 2.2504 0 0 0 184.67 pippo 184.67
ODOM 1.08477 0.697049 2.2504 0 0 0 184.83 pippo 184.83
ODOM 1.01626 0.774052 2.34258 0 0 0 184.99 pippo 184.99
ODOM 0.94013 0.848461 2.3856 0 0 0 185.15 pippo 185.15
ODOM 0.857113 0.924909 2.42862 0 0 0 185.31 pippo 185.31
ODOM 0.775617 0.993108 2.46549 0 0 0 185.49 pippo 185.49
ODOM 0.668318 1.07573 2.50851 0 0 0 185.67 pippo 185.67
ODOM 0.616584 1.11331 2.5208 0 0 0 185.83 pippo 185.83
ODOM 0.565874 1.14789 2.55153 0 0 0 185.99 pippo 185.99
ODOM 0.511214 1.18422 2.57611 0 0 0 186.15 pippo 186.15
ODOM 0.456106 1.21807 2.5884 0 0 0 186.31 pippo 186.31
ODOM 0.351636 1.28103 2.61298 0 0 0 186.47 pippo 186.47
ODOM 0.321026 1.29898 2.61913 0 0 0 186.63 pippo 186.63
FLASER 180 0.65 0.65 0.65 0.65 0.65 0.65 0.65 0.65 0.65 0.65 0.65 0.7 0.65 0.7 0.65 0.7 0.7 0.7 0.75 7.35 7.3 7.4 7.5 7.95 7.95 7.95 8 8.2 9.1 12 11.65 11.4 11.2 10.95 10.7 10.55 10.35 10.15 10 10.1 10.3 17.65 17.75 18.8 18.35 17.4 51.05 13.95 12.55 11.5 10.5 9.75 9.1 8.45 7.95 7.6 7.2 6.8 6.5 6.2 6 5.75 5.5 5.3 5.15 4.95 4.75 4.6 4.5 4.4 4.25 4.15 4.05 4 3.85 3.6 3.55 3.5 3.4 3.3 3.25 3.2 3.1 3.1 3.15 3.05 3.05 3 2.95 2.9 2.85 2.8 2.8 2.75 2.75 2.7 2.65 2.65 2.6 2.55 2.55 2.55 2.5 2.45 2.45 2.45 2.4 2.4 2.4 2.35 2.35 2.35 2.35 2.3 2.35 2.3 2.3 2.3 2.3 2.25 2.25 2.25 2.25 2.25 2.25 2.25 2.2 2.2 2.2 2.25 2.2 2.25 2.25 2.25 2.25 2.25 2.3 2.25 2.25 2.3 2.3 2.3 2.35 2.3 2.35 2.3 2.35 2.35 2.4 2.45 2.4 2.45 2.5 2.5 2.55 2.55 2.55 2.6 2.65 2.65 2.65 2.7 2.7 2.75 2.75 2.85 2.9 2.9 2.95 3 3.05 3.1 3.15 3.2 3.25 3.35 3.4 3.45 3.55 3.65 0.296208 1.29898 2.61911 0.296208 1.29898 2.61911 186.63 pippo 186.63
ODOM 0.296208 1.29898 2.61911 0 0 0 0 pippo 0
NEFF 28.4276
ODOM 0.293729 1.3002 2.61911 0 0 0 186.79 pippo 186.79
ODOM 0.299079 1.29661 2.62526 0 0 0 186.95 pippo 186.95
ODOM 0.297761 1.29745 2.62526 0 0 0 187.11 pippo 187.11
ODOM 0.297761 1.29745 2.62526 0 0 0 187.27 pippo 187.27
ODOM 0.297761 1.29745 2.62526 0 0 0 187.43 pippo 187.43
ODOM 0.289781 1.30195 2.64984 0 0 0 187.59 pippo 187.59
ODOM 0.237653 1.32857 2.7113 0 0 0 187.75 pippo 187.75
ODOM 0.193295 1.34751 2.76046 0 0 0 187.91 pippo 187.91
ODOM 0.0840438 1.38512 2.86493 0 0 0 188.09 pippo 188.09
ODOM 0.0259657 1.40042 2.92024 0 0 0 188.29 pippo 188.29
ODOM -0.0430632 1.41381 2.98784 0 0 0 188.48 pippo 188.48
ODOM -0.0764518 1.41947 3.01243 0 0 0 188.65 pippo 188.65
ODOM -0.164747 1.42732 3.07388 0 0 0 188.81 pippo 188.81
ODOM -0.224223 1.43158 3.1169 0 0 0 188.97 pippo 188.97
ODOM -0.289928 1.43217 3.13534 0 0 0 189.13 pippo 189.13
FLASER 180 11 10.7 10.45 10.25 10.05 9.95 9.75 9.85 10.1 17.35 17.45 17.5 18.6 18.1 17.15 51.05 12.85 11.35 10.15 9.25 8.45 7.75 7.25 6.75 6.35 6 5.65 5.4 5.15 4.85 4.65 4.45 4.3 4.1 4 3.85 3.7 3.6 3.5 3.4 3.15 3.05 2.95 2.85 2.85 2.75 2.7 2.6 2.6 2.6 2.6 2.55 2.45 2.45 2.4 2.35 2.3 2.25 2.2 2.2 2.15 2.15 2.1 2.1 2.05 2.05 2 2 1.95 1.95 1.95 1.9 1.9 1.9 1.85 1.85 1.8 1.85 1.85 1.8 1.8 1.8 1.75 1.75 1.75 1.7 1.75 1.7 1.7 1.75 1.7 1.7 1.7 1.7 1.65 1.65 1.7 1.65 1.65 1.65 1.7 1.65 1.65 1.7 1.7 1.65 1.7 1.7 1.7 1.7 1.7 1.75 1.7 1.7 1.75 1.75 1.75 1.75 1.8 1.8 1.8 1.8 1.85 1.85 1.85 1.85 1.9 1.95 1.95 1.95 2 1.95 2 2.05 2.1 2.15 2.1 2.2 2.2 2.25 2.3 2.3 2.35 2.4 2.4 2.45 2.5 1.35 1.33 1.33 1.33 1.33 1.4 1.45 1.25 1.18 1.15 1.18 1.2 1.2 3.6 3.7 3.85 3.95 4.1 4.25 4.4 4.6 4.8 5.1 5.35 5.6 5.95 6.3 6.7 7.15 7.7 8.35 9.1 9.7 -0.285436 1.45076 3.12909 -0.285436 1.45076 3.12909 189.13 pippo 189.13
ODOM -0.285436 1.45076 3.12909 0 0 0 0 pippo 0
NEFF 28.1008
ODOM -0.355151 1.45068 -3.13566 0 0 0 189.29 pippo 189.29
ODOM -0.427492 1.44998 -3.11723 0 0 0 189.45 pippo 189.45
ODOM -0.478446 1.44766 -3.10493 0 0 0 189.61 pippo 189.61
ODOM -0.520909 1.44611 -3.07421 0 0 0 189.77 pippo 189.77
ODOM -0.563216 1.44256 -3.04348 0 0 0 189.93 pippo 189.93
ODOM -0.585605 1.44024 -3.03733 0 0 0 190.09 pippo 190.09
ODOM -0.633239 1.43491 -3.02504 0 0 0 190.25 pippo 190.25
ODOM -0.671996 1.43074 -3.00661 0 0 0 190.41 pippo 190.41
ODOM -0.696083 1.42657 -2.99432 0 0 0 190.57 pippo 190.57
ODOM -0.745493 1.41962 -2.99432 0 0 0 190.73 pippo 190.73
ODOM -0.77815 1.41414 -2.99432 0 0 0 190.89 pippo 190.89
ODOM -0.828487 1.40688 -2.99432 0 0 0 191.05 pippo 191.05
ODOM -0.86346 1.40139 -3.00661 0 0 0 191.21 pippo 191.21
ODOM -0.86346 1.40139 -3.05577 0 0 0 191.37 pippo 191.37
ODOM -0.862534 1.4017 -3.13566 0 0 0 191.53 pippo 191.53
ODOM -0.862534 1.4017 3.01847 0 0 0 191.69 pippo 191.69
ODOM -0.862534 1.4017 2.92628 0 0 0 191.85 pippo 191.85
FLASER 180 8.25 8.75 9.15 12.85 12.5 12.1 11.75 11.4 11.15 10.85 10.55 10.4 10.05 9.9 9.8 9.95 10.05 17.4 17.3 17.35 17.4 17.4 18.35 17.75 17.05 12.35 10.25 8.85 7.8 7 6.35 5.75 5.35 4.95 4.55 4.3 4.05 3.8 3.6 3.45 3.3 3.1 2.8 2.65 2.55 2.45 2.35 2.3 2.15 2.2 2.2 2.15 2.1 2.05 2 1.95 1.9 1.85 1.8 1.75 1.7 1.65 1.65 1.6 1.6 1.6 1.5 1.5 1.45 1.45 1.45 1.4 1.4 1.35 1.35 1.35 1.3 1.3 1.3 1.25 1.25 1.2 1.25 1.2 1.2 1.2 1.2 1.15 1.2 1.15 1.15 1.15 1.1 1.15 1.1 1.1 1.1 1.1 1.1 1.1 1.05 1.05 1.1 1.05 1.05 1.05 1.1 1.1 1.05 1.05 1.1 1.05 1.1 1.1 1.1 1.05 1.1 1.1 1.1 1.1 1.1 1.1 1.1 1.1 1.1 1.1 1.1 1.15 1.1 1.1 1.15 1.15 1.15 1.15 1.15 1.15 1.2 1.2 1.2 1.25 1.25 1.25 1.25 1.3 1.3 1.3 1.35 1.35 1.35 1.4 1.4 1.4 1.45 1.45 1.5 1.5 1.55 1.6 1.6 1.65 1.65 1.7 1.75 1.8 1.8 1.85 1.9 2 2 2.05 2.15 2.2 2.25 2.35 2.45 2.55 2.65 2.7 2.85 2.95 -0.901619 1.45157 2.92628 -0.901619 1.45157 2.92628 191.85 pippo 191.85
ODOM -0.901619 1.45157 2.92628 0 0 0 0 pippo 0
NEFF 27.8389
ODOM -0.901619 1.45157 2.79108 0 0 0 192.01 pippo 192.01
ODOM -0.901619 1.45157 2.67432 0 0 0 192.17 pippo 192.17
ODOM -0.901619 1.45157 2.59443 0 0 0 192.33 pippo 192.33
ODOM -0.901619 1.45157 2.48995 0 0 0 192.49 pippo 192.49
ODOM -0.908104 1.4579 2.37933 0 0 0 192.65 pippo 192.65
FLASER 180 10.85 11.7 11.7 11.7 11.65 11.65 11.7 11.65 11.7 11.75 8.7 8.6 8 7.9 7.85 7.85 7.9 7.85 7.65 7.55 7.5 7.55 7.65 7.75 7.85 7.9 7.7 7.75 7.8 8.1 8.6 8.65 9.85 12.8 12.4 12.05 11.7 11.4 11.05 10.75 10.55 10.25 10.05 9.85 9.8 10 10.05 17.4 17.25 17.35 17.4 18.3 18.35 17.55 51.05 11.9 9.95 8.65 7.55 6.85 6.2 5.7 5.2 4.8 4.5 4.2 3.9 3.75 3.6 3.4 3.2 2.85 2.7 2.6 2.45 2.45 2.35 2.25 2.2 2.2 2.2 2.1 2.1 2 1.95 1.9 1.85 1.8 1.8 1.75 1.7 1.65 1.65 1.65 1.55 1.5 1.5 1.5 1.45 1.45 1.4 1.4 1.4 1.35 1.35 1.3 1.3 1.3 1.3 1.25 1.25 1.25 1.2 1.2 1.2 1.2 1.15 1.2 1.2 1.15 1.15 1.15 1.1 1.15 1.15 1.1 1.15 1.1 1.1 1.1 1.1 1.1 1.1 1.1 1.1 1.1 1.05 1.1 1.05 1.05 1.05 1.05 1.05 1.05 1.05 1.05 1.05 1.05 1.05 1.1 1.1 1.1 1.1 1.1 1.1 1.1 1.1 1.1 1.1 1.1 1.15 1.15 1.15 1.2 1.2 1.15 1.15 1.2 1.2 1.2 1.25 1.25 1.25 1.25 1.25 1.3 1.3 1.35 1.35 1.4 -0.903235 1.45946 2.40433 -0.903235 1.45946 2.40433 192.65 pippo 192.65
ODOM -0.903235 1.45946 2.40433 0 0 0 0 pippo 0
NEFF 26.9888
ODOM -0.922286 1.47698 2.34902 0 0 0 192.81 pippo 192.81
ODOM -0.975442 1.53642 2.25069 0 0 0 192.97 pippo 192.97
ODOM -1.03236 1.6106 2.19539 0 0 0 193.13 pippo 193.13
ODOM -1.10417 1.72094 2.09706 0 0 0 193.29 pippo 193.29
ODOM -1.14391 1.79354 2.04789 0 0 0 193.45 pippo 193.45
ODOM -1.1944 1.90379 1.968 0 0 0 193.61 pippo 193.61
ODOM -1.2329 2.00384 1.9004 0 0 0 193.77 pippo 193.77
FLASER 180 2.05 2.1 2.1 2.15 2.2 2.3 2.48 2.48 2.43 2.43 2.38 2.33 2.33 2.33 2.33 2.45 2.55 2.7 2.8 6 6.3 6.65 7.15 7.65 7.85 7.85 8.5 9.4 10.45 11.55 11.5 11.5 11.45 11.45 11.45 11.4 11.4 8.8 8.05 7.8 7.75 7.7 7.75 7.55 7.3 7.15 7.3 7.3 7.25 7.45 7.4 7.45 7.15 7.3 7.25 7.45 7.7 7.95 7.95 7.95 8.8 9.05 12.5 12.15 11.7 11.35 11 10.7 10.35 10.15 9.85 9.6 9.4 9.3 9.35 9.5 17.1 17 16.75 16.75 16.85 16.85 17.95 17.55 16.45 12.45 9.85 8.2 7.1 6.2 5.6 5.05 4.6 4.25 3.85 3.65 3.4 3.15 3 2.85 2.7 2.6 2.25 2.15 2.05 1.95 1.9 1.85 1.75 1.7 1.6 1.6 1.55 1.55 1.55 1.55 1.5 1.45 1.45 1.4 1.35 1.35 1.35 1.3 1.3 1.25 1.2 1.2 1.2 1.15 1.15 1.1 1.1 1.05 1.05 1.05 1.05 1 1 1 0.95 0.95 0.95 0.95 0.95 0.95 0.95 0.9 0.95 0.9 0.9 0.9 0.9 0.9 0.85 0.9 0.9 0.9 0.9 0.85 0.85 0.85 0.85 0.85 0.85 0.85 0.85 0.85 0.8 0.8 0.85 0.85 0.8 0.85 0.85 0.85 0.85 0.8 0.85 0.85 -1.22463 1.91243 1.86602 -1.22463 1.91243 1.86602 193.77 pippo 193.77
ODOM -1.22463 1.91243 1.86602 0 0 0 0 pippo 0
NEFF 27.0092
ODOM -1.26018 2.04154 1.79842 0 0 0 193.93 pippo 193.93
ODOM -1.27722 2.11813 1.76155 0 0 0 194.09 pippo 194.09
ODOM -1.29655 2.23991 1.69395 0 0 0 194.25 pippo 194.25
ODOM -1.30617 2.31814 1.65093 0 0 0 194.41 pippo 194.41
ODOM -1.31282 2.43247 1.60177 0 0 0 194.57 pippo 194.57
ODOM -1.3144 2.56126 1.54031 0 0 0 194.73 pippo 194.73
ODOM -1.31017 2.65935 1.50958 0 0 0 194.89 pippo 194.89
ODOM -1.30118 2.77053 1.46042 0 0 0 195.05 pippo 195.05
ODOM -1.28485 2.89869 1.4174 0 0 0 195.21 pippo 195.21
ODOM -1.2638 3.02018 1.38667 0 0 0 195.37 pippo 195.37
FLASER 180 2.05 2.1 2.1 2.1 2.15 2.2 2.2 2.45 2.38 2.33 2.28 2.28 2.18 2.13 2.08 2.05 2.1 2.15 2.2 2.25 2.25 2.3 2.3 2.35 2.5 3.95 4 4.15 4.25 4.3 4.5 4.55 4.65 4.75 4.9 5.05 5.25 5.4 5.55 5.8 6 6.2 6.5 6.7 7.05 7.25 7.25 7.35 7.8 8.25 8.85 9.55 10.25 10.85 10.8 10.8 10.75 10.75 10.7 10.7 7.5 7.3 7.25 7.2 6.6 6.5 6.5 6.5 6.4 6.5 6.6 6.45 6.25 6.15 6.15 6.2 6.4 6.35 6.5 6.6 6.65 6.65 6.6 6.8 7.35 7.4 7.4 7.6 11.35 11.45 11.05 10.65 10.3 10 9.7 9.4 9.1 8.95 8.7 8.45 8.25 8.2 8.3 8.4 16.1 15.95 15.75 15.65 15.7 15.75 16.65 16.75 16.2 15.55 11.45 9.5 8.1 7.1 6.35 5.7 5.2 4.8 4.45 4.05 3.8 3.65 3.4 3.2 3.05 2.9 2.75 2.6 2.55 2.4 2.3 2.25 2.15 2.1 2 1.95 1.95 1.85 1.8 1.75 1.65 1.65 1.6 1.6 1.5 1.5 1.45 1.4 1.3 1.3 1.25 1.25 1.2 1.2 1.15 1.15 1.1 1.15 1.1 1.1 1.05 1.05 1.05 1.05 1 1 1 1 0.95 1 1 0.95 0.95 0.95 0.9 0.9 -1.2575 2.96192 1.38355 -1.2575 2.96192 1.38355 195.37 pippo 195.37
ODOM -1.2575 2.96192 1.38355 0 0 0 0 pippo 0
NEFF 26.414
ODOM -1.24204 3.03785 1.35897 0 0 0 195.53 pippo 195.53
ODOM -1.2172 3.1478 1.33438 0 0 0 195.69 pippo 195.69
ODOM -1.1855 3.27558 1.30366 0 0 0 195.85 pippo 195.85
ODOM -1.16344 3.35413 1.29137 0 0 0 196.01 pippo 196.01
ODOM -1.13012 3.46961 1.27293 0 0 0 196.17 pippo 196.17
ODOM -1.10676 3.5473 1.26064 0 0 0 196.33 pippo 196.33
ODOM -1.06839 3.66465 1.24835 0 0 0 196.49 pippo 196.49
ODOM -1.0267 3.78921 1.23606 0 0 0 196.65 pippo 196.65
ODOM -1.00356 3.85555 1.22991 0 0 0 196.81 pippo 196.81
ODOM -0.961666 3.97069 1.21762 0 0 0 196.97 pippo 196.97
FLASER 180 2 2 2 2 2 2.05 2.1 2.1 3.1 3.15 3.2 3.2 3.25 3.25 3.3 3.35 3.4 3.4 3.45 3.5 3.5 3.6 3.65 3.65 3.75 3.8 3.85 3.9 3.95 4.05 4.1 4.15 4.3 4.35 4.45 4.5 4.6 4.75 4.8 4.9 5.05 5.2 5.35 5.45 5.6 5.75 5.95 6.15 6.35 6.4 6.35 6.55 6.75 7.1 7.45 7.75 8.15 8.6 9.1 9.7 9.95 9.9 9.85 9.8 9.8 9.75 6.8 6.65 6.05 5.75 5.8 5.65 5.65 5.7 5.65 5.3 5.2 5.25 5.15 5.15 5.25 5.2 5.25 5.35 5.45 5.4 5.35 5.35 5.3 5.4 5.45 5.6 6 5.95 6 5.95 6 6.15 6.35 10.35 10.25 9.85 9.55 9.2 8.95 8.7 8.5 8.25 8.05 7.85 7.65 7.45 7.3 7.15 7.15 7.25 7.4 14.9 14.6 14.65 14.7 14.75 15.7 15.75 15.25 14.35 12.2 10.6 9.4 8.45 7.65 7.05 6.45 6 5.65 5.3 4.95 4.75 4.45 4.25 4.05 3.9 3.75 3.55 3.45 3.3 3.2 3.1 2.95 2.9 2.8 2.75 2.65 2.6 2.5 2.4 2.35 2.35 2.3 2.2 2.15 2.15 2.1 2.05 2 1.95 1.95 1.9 1.85 1.85 1.8 1.8 1.8 1.75 1.7 1.7 1.7 1.65 1.65 1.6 -0.909043 4.06757 1.20668 -0.909043 4.06757 1.20668 196.97 pippo 196.97
ODOM -0.909043 4.06757 1.20668 0 0 0 0 pippo 0
NEFF 26.1124
ODOM -0.86085 4.19324 1.1821 0 0 0 197.13 pippo 197.13
ODOM -0.813234 4.30418 1.14523 0 0 0 197.29 pippo 197.29
ODOM -0.782353 4.3732 1.12064 0 0 0 197.45 pippo 197.45
ODOM -0.727108 4.48342 1.08377 0 0 0 197.61 pippo 197.61
ODOM -0.684414 4.56219 1.06533 0 0 0 197.77 pippo 197.77
ODOM -0.625526 4.66638 1.03461 0 0 0 197.93 pippo 197.93
ODOM -0.557555 4.77924 1.01617 0 0 0 198.09 pippo 198.09
ODOM -0.519189 4.84136 1.00388 0 0 0 198.25 pippo 198.25
ODOM -0.451021 4.94611 0.979298 0 0 0 198.41 pippo 198.41
ODOM -0.390986 5.0366 0.973152 0 0 0 198.57 pippo 198.57
