ODOM 0 0 0 0 0 0 0.313517 pippo 0.313517
ODOM 0 0 8e-06 0 0 0 0.418242 pippo 0.418242
ODOM 0 0 1.6e-05 0 0 0 0.54286 pippo 0.54286
ODOM 0 0 2.4e-05 0 0 0 0.65736 pippo 0.65736
ODOM 0 0 3.5e-05 0 0 0 0.7964 pippo 0.7964
ODOM 0 0 3.2e-05 0 0 0 0.923079 pippo 0.923079
ODOM 0 0 3e-05 0 0 0 1.01723 pippo 1.01723
ODOM 0 0 1.7e-05 0 0 0 1.14291 pippo 1.14291
ODOM 0 0 1.4e-05 0 0 0 1.25723 pippo 1.25723
ODOM 0 0 9e-06 0 0 0 1.38891 pippo 1.38891
ODOM 0 0 1e-06 0 0 0 1.50791 pippo 1.50791
ODOM 0 0 9e-06 0 0 0 1.63356 pippo 1.63356
ODOM 0 0 1.7e-05 0 0 0 1.75364 pippo 1.75364
ODOM 0 0 6e-06 0 0 0 1.90749 pippo 1.90749
ODOM 0 0 4e-06 0 0 0 2.06723 pippo 2.06723
ODOM 0 0 2.5e-05 0 0 0 2.18883 pippo 2.18883
ODOM 0 0 3.3e-05 0 0 0 2.31292 pippo 2.31292
ODOM 0 0 4.7e-05 0 0 0 2.42833 pippo 2.42833
ODOM 0 0 6e-05 0 0 0 2.54824 pippo 2.54824
ODOM 0 0 5.7e-05 0 0 0 2.66737 pippo 2.66737
ODOM 0 0 6.8e-05 0 0 0 2.78869 pippo 2.78869
ODOM 0 0 6e-05 0 0 0 2.91291 pippo 2.91291
ODOM 0 0 5.2e-05 0 0 0 3.03356 pippo 3.03356
ODOM 0 0 5e-05 0 0 0 3.14732 pippo 3.14732
ODOM 0 0 5.8e-05 0 0 0 3.26725 pippo 3.26725
ODOM 0 0 6.3e-05 0 0 0 3.389 pippo 3.389
ODOM 0 0 6e-05 0 0 0 3.50728 pippo 3.50728
ODOM 0 0 5.8e-05 0 0 0 3.60759 pippo 3.60759
ODOM 0 0 5.5e-05 0 0 0 3.72727 pippo 3.72727
ODOM 0 0 5.3e-05 0 0 0 3.85334 pippo 3.85334
ODOM 0 0 5e-05 0 0 0 3.96856 pippo 3.96856
ODOM 0 0 3.4e-05 0 0 0 4.10581 pippo 4.10581
ODOM 0 0 4.2e-05 0 0 0 4.23302 pippo 4.23302
ODOM 0 0 4e-05 0 0 0 4.3546 pippo 4.3546
ODOM 0 0 3.7e-05 0 0 0 4.46733 pippo 4.46733
ODOM 0 0 2.6e-05 0 0 0 4.58943 pippo 4.58943
ODOM 0 0 4e-05 0 0 0 4.70774 pippo 4.70774
ODOM 0 0 3.7e-05 0 0 0 4.83301 pippo 4.83301
ODOM 0 0 2.7e-05 0 0 0 4.98875 pippo 4.98875
ODOM 0 0 1.9e-05 0 0 0 5.14748 pippo 5.14748
ODOM 0 0 -0.001054 0 0 0 5.2729 pippo 5.2729
ODOM -0.000169999 4.3656e-07 -0.004309 0 0 0 5.36835 pippo 5.36835
ODOM 0.00102297 -1.2627e-05 -0.012964 0 0 0 5.50529 pippo 5.50529
ODOM 0.000447983 -7.15044e-06 -0.016071 0 0 0 5.61747 pippo 5.61747
ODOM 0.0102205 0.000179754 -0.019219 0 0 0 5.73732 pippo 5.73732
ODOM 0.0316706 0.000572672 -0.023448 0 0 0 5.87306 pippo 5.87306
ODOM 0.0381503 0.000835033 -0.026427 0 0 0 5.97858 pippo 5.97858
ODOM 0.0579613 0.00122316 -0.029434 0 0 0 6.10346 pippo 6.10346
ODOM 0.096764 0.00105751 -0.028138 0 0 0 6.21726 pippo 6.21726
ODOM 0.110064 0.00193036 -0.025511 0 0 0 6.33791 pippo 6.33791
ODOM 0.140442 -0.00678468 -0.022016 0 0 0 6.45741 pippo 6.45741
ODOM 0.159188 -0.00603981 -0.013581 0 0 0 6.58465 pippo 6.58465
ODOM 0.179166 -0.00542611 0.005236 0 0 0 6.69837 pippo 6.69837
ODOM 0.191678 -0.00491624 0.016455 0 0 0 6.81343 pippo 6.81343
ODOM 0.214451 -0.00422272 0.026593 0 0 0 6.94726 pippo 6.94726
ODOM 0.22748 -0.00401018 0.038829 0 0 0 7.04836 pippo 7.04836
ODOM 0.254937 -0.00330169 0.051357 0 0 0 7.16726 pippo 7.16726
ODOM 0.271919 -0.0029983 0.073859 0 0 0 7.28976 pippo 7.28976
ODOM 0.281786 -0.00277563 0.072371 0 0 0 7.42732 pippo 7.42732
ODOM 0.285147 -0.00307527 0.072315 0 0 0 7.52887 pippo 7.52887
ODOM 0.281475 -0.00334084 0.071525 0 0 0 7.64727 pippo 7.64727
ODOM 0.281475 -0.00334084 0.071863 0 0 0 7.77282 pippo 7.77282
ODOM 0.281475 -0.00334084 0.071889 0 0 0 7.88872 pippo 7.88872
ODOM 0.281475 -0.00334084 0.071887 0 0 0 8.05317 pippo 8.05317
ODOM 0.281475 -0.00334084 0.071887 0 0 0 8.22729 pippo 8.22729
ODOM 0.281475 -0.00334084 0.071799 0 0 0 8.3274 pippo 8.3274
ODOM 0.281475 -0.00334084 0.07186 0 0 0 8.44716 pippo 8.44716
ODOM 0.281475 -0.00334084 0.071831 0 0 0 8.57766 pippo 8.57766
ODOM 0.281475 -0.00334084 0.071831 0 0 0 8.70319 pippo 8.70319
ODOM 0.281475 -0.00334084 0.071829 0 0 0 8.82088 pippo 8.82088
ODOM 0.281475 -0.00334084 0.07181 0 0 0 8.93528 pippo 8.93528
ODOM 0.281475 -0.00334084 0.071808 0 0 0 9.05834 pippo 9.05834
ODOM 0.281475 -0.00334084 0.071816 0 0 0 9.18308 pippo 9.18308
ODOM 0.281475 -0.00334084 0.07181 0 0 0 9.29353 pippo 9.29353
ODOM 0.281475 -0.00334084 0.071802 0 0 0 9.40531 pippo 9.40531
ODOM 0.281475 -0.00334084 0.0718 0 0 0 9.5174 pippo 9.5174
ODOM 0.281475 -0.00334084 0.071792 0 0 0 9.63715 pippo 9.63715
ODOM 0.281475 -0.00334084 0.071789 0 0 0 9.78319 pippo 9.78319
ODOM 0.281475 -0.00334084 0.071784 0 0 0 9.89829 pippo 9.89829
ODOM 0.281475 -0.00334084 0.071771 0 0 0 9.99939 pippo 9.99939
ODOM 0.281475 -0.00334084 0.071758 0 0 0 10.1228 pippo 10.1228
ODOM 0.281475 -0.00334084 0.07175 0 0 0 10.2556 pippo 10.2556
ODOM 0.281475 -0.00334084 0.071736 0 0 0 10.3775 pippo 10.3775
ODOM 0.281475 -0.00334084 0.071721 0 0 0 10.4985 pippo 10.4985
ODOM 0.281475 -0.00334084 0.071718 0 0 0 10.5992 pippo 10.5992
ODOM 0.281475 -0.00334084 0.071705 0 0 0 10.7379 pippo 10.7379
ODOM 0.281475 -0.00334084 0.071697 0 0 0 10.8573 pippo 10.8573
ODOM 0.281475 -0.00334084 0.071689 0 0 0 10.9776 pippo 10.9776
ODOM 0.281475 -0.00334084 0.071678 0 0 0 11.1372 pippo 11.1372
ODOM 0.281475 -0.00334084 0.071673 0 0 0 11.2936 pippo 11.2936
ODOM 0.281475 -0.00334084 0.071681 0 0 0 11.4082 pippo 11.4082
ODOM 0.281475 -0.00334084 0.071668 0 0 0 11.5278 pippo 11.5278
ODOM 0.281475 -0.00334084 0.071665 0 0 0 11.6473 pippo 11.6473
ODOM 0.281475 -0.00334084 0.071657 0 0 0 11.7729 pippo 11.7729
ODOM 0.281475 -0.00334084 0.071655 0 0 0 11.8855 pippo 11.8855
ODOM 0.281475 -0.00334084 0.071644 0 0 0 12.0246 pippo 12.0246
ODOM 0.281475 -0.00334084 0.071631 0 0 0 12.1273 pippo 12.1273
ODOM 0.281475 -0.00334084 0.071644 0 0 0 12.2474 pippo 12.2474
ODOM 0.281475 -0.00334084 0.071642 0 0 0 12.3728 pippo 12.3728
ODOM 0.281475 -0.00334084 0.071639 0 0 0 12.4848 pippo 12.4848
ODOM 0.281475 -0.00334084 0.071639 0 0 0 12.6083 pippo 12.6083
ODOM 0.281475 -0.00334084 0.071637 0 0 0 12.7274 pippo 12.7274
ODOM 0.281475 -0.00334084 0.071623 0 0 0 12.8472 pippo 12.8472
ODOM 0.281475 -0.00334084 0.071615 0 0 0 12.9729 pippo 12.9729
ODOM 0.281475 -0.00334084 0.071613 0 0 0 13.0857 pippo 13.0857
ODOM 0.281475 -0.00334084 0.071602 0 0 0 13.2084 pippo 13.2084
ODOM 0.281475 -0.00334084 0.071589 0 0 0 13.3273 pippo 13.3273
ODOM 0.281475 -0.00334084 0.071597 0 0 0 13.4375 pippo 13.4375
ODOM 0.281475 -0.00334084 0.071594 0 0 0 13.5573 pippo 13.5573
ODOM 0.281475 -0.00334084 0.071592 0 0 0 13.6843 pippo 13.6843
ODOM 0.281475 -0.00334084 0.071587 0 0 0 13.7992 pippo 13.7992
ODOM 0.281475 -0.00334084 0.071584 0 0 0 13.9174 pippo 13.9174
ODOM 0.281475 -0.00334084 0.071597 0 0 0 14.0372 pippo 14.0372
ODOM 0.281475 -0.00334084 0.071603 0 0 0 14.1985 pippo 14.1985
ODOM 0.281475 -0.00334084 0.071595 0 0 0 14.3573 pippo 14.3573
ODOM 0.281475 -0.00334084 0.071584 0 0 0 14.4923 pippo 14.4923
ODOM 0.281475 -0.00334084 0.071592 0 0 0 14.6074 pippo 14.6074
ODOM 0.281475 -0.00334084 0.07159 0 0 0 14.7331 pippo 14.7331
ODOM 0.281475 -0.00334084 0.071576 0 0 0 14.853 pippo 14.853
ODOM 0.281475 -0.00334084 0.071563 0 0 0 14.9677 pippo 14.9677
ODOM 0.281475 -0.00334084 0.071563 0 0 0 15.0863 pippo 15.0863
ODOM 0.281475 -0.00334084 0.071561 0 0 0 15.1985 pippo 15.1985
ODOM 0.281475 -0.00334084 0.071547 0 0 0 15.3129 pippo 15.3129
ODOM 0.281475 -0.00334084 0.071534 0 0 0 15.429 pippo 15.429
ODOM 0.281475 -0.00334084 0.071521 0 0 0 15.5481 pippo 15.5481
ODOM 0.281475 -0.00334084 0.071518 0 0 0 15.6674 pippo 15.6674
ODOM 0.281475 -0.00334084 0.071508 0 0 0 15.7933 pippo 15.7933
ODOM 0.281475 -0.00334084 0.0715 0 0 0 15.9274 pippo 15.9274
ODOM 0.281475 -0.00334084 0.071492 0 0 0 16.0372 pippo 16.0372
ODOM 0.281475 -0.00334084 0.071484 0 0 0 16.1547 pippo 16.1547
ODOM 0.281475 -0.00334084 0.071481 0 0 0 16.2822 pippo 16.2822
ODOM 0.281475 -0.00334084 0.071471 0 0 0 16.4075 pippo 16.4075
ODOM 0.281475 -0.00334084 0.071468 0 0 0 16.5273 pippo 16.5273
ODOM 0.281475 -0.00334084 0.071466 0 0 0 16.6474 pippo 16.6474
ODOM 0.281475 -0.00334084 0.071926 0 0 0 16.7481 pippo 16.7481
ODOM 0.281261 0.00603374 0.083281 0 0 0 16.8915 pippo 16.8915
ODOM 0.281959 0.00609995 0.088942 0 0 0 17.0029 pippo 17.0029
ODOM 0.292536 0.00646479 0.094444 0 0 0 17.1175 pippo 17.1175
ODOM 0.314661 0.00733598 0.104877 0 0 0 17.2919 pippo 17.2919
ODOM 0.332978 0.00860494 0.112631 0 0 0 17.4531 pippo 17.4531
ODOM 0.357154 0.00886686 0.118723 0 0 0 17.5483 pippo 17.5483
ODOM 0.377807 0.00944382 0.127605 0 0 0 17.673 pippo 17.673
ODOM 0.407039 0.0197238 0.150942 0 0 0 17.7931 pippo 17.7931
ODOM 0.426256 0.0205284 0.165174 0 0 0 17.9075 pippo 17.9075
ODOM 0.452181 0.0207659 0.180141 0 0 0 18.0334 pippo 18.0334
ODOM 0.478413 0.0301645 0.196656 0 0 0 18.1484 pippo 18.1484
ODOM 0.506954 0.0313352 0.213549 0 0 0 18.2729 pippo 18.2729
ODOM 0.540203 0.0431399 0.255076 0 0 0 18.4076 pippo 18.4076
ODOM 0.5629 0.0525256 0.278043 0 0 0 18.5274 pippo 18.5274
ODOM 0.563273 0.0625077 0.307968 0 0 0 18.6475 pippo 18.6475
ODOM 0.596568 0.0628612 0.341449 0 0 0 18.7483 pippo 18.7483
ODOM 0.625044 0.0739091 0.376282 0 0 0 18.8731 pippo 18.8731
ODOM 0.660176 0.0838279 0.452857 0 0 0 18.9984 pippo 18.9984
FLASER 181 3.3 5 5.05 5.1 5.15 5.2 3.35 3.25 5.35 4.65 4.4 3.53 3.5 4.1 4.2 4.25 4.3 6.1 6.2 6.36 7.35 5.95 5.75 5.15 5.85 5 6.2 7.35 7.45 7.5 7.55 7.55 6.2 7.65 6.15 8 7.9 7.8 7.75 7.7 7.6 7.5 7.45 7.45 7.4 7.3 7.25 7.2 7.2 7.2 5.85 5.85 5.75 5.8 3.8 3.75 3.8 3.9 4.9 5.7 5.65 5.65 5.65 5.7 5.65 5.65 5.65 5.6 5.6 6.9 6.9 6.9 6.9 6.95 6.95 7.05 7.05 7.05 7.05 7.05 7.1 7.2 7.15 7.15 7.2 7.35 7.35 7.35 7.4 7.45 7.5 7.6 5.9 5.6 7.8 7.8 7.95 8.05 8.2 8.15 8.25 8.35 8.6 8.65 6.5 8.8 8.95 9.25 9.3 9.2 8.95 8.9 9 9.15 9.25 10.5 10.8 11.05 11.2 11.4 9.35 9.2 51.15 12.95 13 51.15 17.45 14.65 51.15 17.85 51.15 51.15 51.15 16.4 16.5 16.4 6 5.8 5.8 4.3 5.3 5.3 5.3 5.25 17.95 7.3 14.95 14.9 5.7 5.15 5 5.25 5.35 5 4.9 4.95 5.45 7.95 2.55 2.55 5.85 4.05 8.3 2.65 2.6 11.75 10.95 10.95 11.1 9.35 9.95 7.8 7.45 7.4 6.5 6.1 6.05 6.1 6.15 6.9 50 0.694727 0.0963489 0.402857 0.694727 0.0963489 0.402857 18.9984 pippo 18.9984
ODOM 0.694727 0.0963489 0.402857 0 0 0 0 pippo 0
NEFF 30
ODOM 0.71822 0.113737 0.443758 0 0 0 19.113 pippo 19.113
ODOM 0.762539 0.136997 0.484814 0 0 0 19.2473 pippo 19.2473
ODOM 0.794382 0.152364 0.524916 0 0 0 19.3484 pippo 19.3484
ODOM 0.876156 0.205239 0.565445 0 0 0 19.4674 pippo 19.4674
ODOM 0.8978 0.218639 0.629393 0 0 0 19.589 pippo 19.589
ODOM 0.938554 0.247471 0.641416 0 0 0 19.7074 pippo 19.7074
ODOM 0.988596 0.28286 0.643346 0 0 0 19.8332 pippo 19.8332
ODOM 1.02808 0.309035 0.647682 0 0 0 19.9474 pippo 19.9474
ODOM 1.06433 0.335211 0.655579 0 0 0 20.0745 pippo 20.0745
ODOM 1.09955 0.368754 0.671048 0 0 0 20.1893 pippo 20.1893
ODOM 1.12221 0.384996 0.678924 0 0 0 20.3487 pippo 20.3487
ODOM 1.22175 0.459516 0.70076 0 0 0 20.5282 pippo 20.5282
ODOM 1.22264 0.497467 0.713235 0 0 0 20.6533 pippo 20.6533
ODOM 1.25333 0.490999 0.723916 0 0 0 20.7482 pippo 20.7482
ODOM 1.28539 0.521834 0.734906 0 0 0 20.8676 pippo 20.8676
ODOM 1.33341 0.5674 0.760751 0 0 0 20.9947 pippo 20.9947
ODOM 1.37148 0.604574 0.774977 0 0 0 21.1071 pippo 21.1071
ODOM 1.41955 0.651099 0.790598 0 0 0 21.2278 pippo 21.2278
ODOM 1.45782 0.697078 0.804293 0 0 0 21.3476 pippo 21.3476
FLASER 181 7.45 7.45 7.75 7.6 7.55 7.45 7.45 7.3 7.15 7.1 7.05 7.05 6.95 6.85 6.8 3.25 3.28 3.28 3.3 3.58 3.65 4.25 4.3 4.4 5.05 5.05 5.1 5.05 5 5 4.95 5 4.95 4.9 4.9 4.9 4.95 6.2 6.15 6.15 6.15 6.2 6.2 6.15 6.2 6.2 6.2 6.2 6.25 6.2 6.25 6.3 6.3 6.3 6.3 6.35 6.35 6.45 6.5 6.55 6.6 6.55 6.65 4.85 4.6 6.75 6.85 6.9 6.95 7 7.1 7.2 7.3 7.3 7.35 7.45 7.55 7.75 5.55 5.3 7.9 8.1 8.2 8.35 8.15 7.9 7.85 8 8.2 8.4 8.45 9.6 9.85 10.2 10.45 10.6 8.3 8.15 51.15 12.25 12.25 51.15 15.95 13.85 51.15 51.15 15.55 51.15 51.15 15.75 15.5 15.45 15.45 15.45 15.25 5.25 5.15 15.15 15.1 5.55 5 4.5 4.6 4.5 3.25 6.55 14.2 14.1 14 6.4 5.1 5 5.15 4.9 4.45 15.8 7.25 4.3 4.35 4.4 5.3 7.2 4.15 4.1 3.85 3.5 3.7 3.9 4.55 3.55 8.7 9.65 7.3 7.1 2.1 2.1 6.9 6.95 5.9 5.8 2.15 2.25 5.95 6.75 6.8 6.9 6.95 7.15 13.9 18 16.85 22.5 16.9 11.2 7.4 7.5 4.6 4.25 7.8 4.25 50 1.44139 0.743069 0.851168 1.44139 0.743069 0.851168 21.3476 pippo 21.3476
ODOM 1.44139 0.743069 0.851168 0 0 0 0 pippo 0
NEFF 29.8952
ODOM 1.5254 0.838254 0.859698 0 0 0 21.4731 pippo 21.4731
ODOM 1.5535 0.873996 0.860957 0 0 0 21.5831 pippo 21.5831
ODOM 1.60805 0.931344 0.867153 0 0 0 21.7173 pippo 21.7173
ODOM 1.63248 0.964856 0.872634 0 0 0 21.8176 pippo 21.8176
ODOM 1.67199 1.01709 0.875144 0 0 0 21.9472 pippo 21.9472
ODOM 1.71393 1.06015 0.881713 0 0 0 22.1257 pippo 22.1257
ODOM 1.75143 1.10819 0.887188 0 0 0 22.1889 pippo 22.1889
ODOM 1.78525 1.15413 0.889634 0 0 0 22.3058 pippo 22.3058
ODOM 1.82601 1.19612 0.893501 0 0 0 22.4274 pippo 22.4274
ODOM 1.86296 1.24427 0.896421 0 0 0 22.5536 pippo 22.5536
ODOM 1.89865 1.2916 0.899809 0 0 0 22.6672 pippo 22.6672
ODOM 1.93764 1.33061 0.902665 0 0 0 22.7846 pippo 22.7846
ODOM 1.98097 1.38675 0.913142 0 0 0 22.9084 pippo 22.9084
ODOM 2.0114 1.42719 0.916599 0 0 0 23.0274 pippo 23.0274
ODOM 2.04772 1.47493 0.922048 0 0 0 23.1472 pippo 23.1472
ODOM 2.04615 1.53154 0.926942 0 0 0 23.2674 pippo 23.2674
FLASER 181 3.5 5.2 5.15 4.1 4.03 4.05 4.9 4.9 4.85 4.85 4.75 4.7 4.7 4.7 4.6 4.6 4.55 4.55 4.55 4.5 4.45 4.5 5.75 5.75 5.65 5.6 5.6 5.65 5.6 5.6 5.6 5.6 5.6 5.6 5.55 5.55 5.55 5.6 5.6 5.55 5.55 5.6 5.65 5.6 5.6 5.65 5.7 5.7 5.75 5.7 5.75 5.75 4.1 3.85 5.9 5.9 5.95 6.05 6.05 6.05 6.1 6.15 6.25 6.3 6.3 6.35 6.45 6.5 6.65 6.7 4.65 4.55 4.55 7.05 7.1 7.2 7.35 7.35 7.25 7.05 6.9 6.95 7.1 7.3 7.45 7.5 8.7 8.9 9.1 9.4 9.5 9.65 7.25 7.2 51.15 11.2 51.15 51.15 12.8 12.85 15.05 15.7 14.45 51.15 51.15 14.75 14.6 14.55 14.55 14.55 14.45 14.35 14.4 14.35 14.1 4.4 4.35 4.3 4.2 4.2 4.3 4.45 3.95 2.5 3.7 3.65 3.7 3.8 3.75 15.65 2.6 2.8 2.6 4.35 4.25 4.35 4.35 4.2 4.35 3.8 6.55 5.15 7.95 3.75 3.65 3.8 5.2 4.75 10.1 9.05 9.05 8.3 3.35 9.25 4.1 3.05 3.05 6.55 6.5 3.1 6.6 5.8 5.65 5.5 5.5 5.55 5.7 6.6 6.65 6.8 6.85 17.5 17.45 11.5 11.1 11.35 7.7 1.88 1.9 7.8 50 2.04888 1.47216 0.939442 2.04888 1.47216 0.939442 23.2674 pippo 23.2674
ODOM 2.04888 1.47216 0.939442 0 0 0 0 pippo 0
NEFF 29.5852
ODOM 2.13254 1.53748 0.947757 0 0 0 23.4273 pippo 23.4273
ODOM 2.17292 1.5928 0.951683 0 0 0 23.5854 pippo 23.5854
ODOM 2.20961 1.64305 0.960962 0 0 0 23.7093 pippo 23.7093
ODOM 2.25142 1.69635 0.964835 0 0 0 23.8229 pippo 23.8229
ODOM 2.28391 1.74 0.969458 0 0 0 23.9372 pippo 23.9372
ODOM 2.31405 1.79513 0.973911 0 0 0 24.094 pippo 24.094
ODOM 2.34328 1.8443 0.978231 0 0 0 24.1857 pippo 24.1857
ODOM 2.38082 1.89572 0.987568 0 0 0 24.313 pippo 24.313
ODOM 2.4114 1.93703 0.992047 0 0 0 24.4273 pippo 24.4273
ODOM 2.44565 1.99309 0.997927 0 0 0 24.5475 pippo 24.5475
ODOM 2.48235 2.04332 1.0026 0 0 0 24.6673 pippo 24.6673
ODOM 2.51708 2.10041 1.00888 0 0 0 24.7885 pippo 24.7885
ODOM 2.5423 2.14722 1.01569 0 0 0 24.9128 pippo 24.9128
ODOM 2.57271 2.19801 1.01891 0 0 0 25.0278 pippo 25.0278
ODOM 2.6074 2.24518 1.02304 0 0 0 25.1474 pippo 25.1474
ODOM 2.6425 2.30323 1.02534 0 0 0 25.2676 pippo 25.2676
FLASER 181 4.35 4.25 4.25 4.3 5.55 5.5 5.45 5.45 5.4 5.4 5.3 5.25 5.3 5.25 5.2 5.15 5.15 5.2 5.15 5.1 5.1 5.05 5.1 5.1 5 5.05 5.05 5.05 5.05 5 4.95 5.05 5.1 5 5 3.75 3.1 5.1 5 5.1 5.05 5.15 5.15 5.1 5.15 5.2 5.3 5.25 5.3 5.3 5.35 5.45 5.45 5.5 5.5 5.55 5.6 5.65 5.65 3.7 3.6 3.5 5.9 5.95 6 6.1 6.2 6.3 6.35 6.4 6.35 6.15 6.05 5.95 6.05 6.15 6.25 6.35 6.45 7.6 7.75 7.9 8.1 8.25 8.5 8.65 6.3 6.2 6.25 6.5 10.25 10.3 51.15 11.7 13.6 11.75 14.9 15 13.55 51.15 51.15 13.9 13.65 13.55 13.55 13.65 13.55 13.4 13.3 13.35 13.35 13.2 12.9 13.25 15.6 51.15 15.2 3.5 3.45 3.4 3.35 3.3 3.3 3.4 3.5 3.15 3.1 2.95 2.85 2.85 2.85 2.85 2.95 2.95 2.95 1.55 1.8 4 3.7 3.6 3.6 3.65 3.7 3.6 3.4 1.8 1.8 4.45 4.45 1.75 3.6 3.3 3.15 3.2 3.2 10.05 10 10.2 6.45 6.35 6.2 6.3 6.3 3.75 2.95 6.35 5.6 3.15 5.3 5.25 2.7 5.45 6.6 2.85 10.9 11.05 11.45 10.55 10.45 7.8 50 2.61377 2.36572 1.01907 2.61377 2.36572 1.01907 25.2676 pippo 25.2676
ODOM 2.61377 2.36572 1.01907 0 0 0 0 pippo 0
NEFF 29.5111
ODOM 2.61193 2.41309 1.02393 0 0 0 25.3887 pippo 25.3887
ODOM 2.63302 2.45263 1.00851 0 0 0 25.5074 pippo 25.5074
ODOM 2.66982 2.45212 0.99834 0 0 0 25.6329 pippo 25.6329
ODOM 2.6964 2.50019 0.989288 0 0 0 25.7473 pippo 25.7473
ODOM 2.73238 2.54898 0.991515 0 0 0 25.8669 pippo 25.8669
ODOM 2.76228 2.59942 0.991768 0 0 0 25.9877 pippo 25.9877
ODOM 2.79808 2.64815 0.993339 0 0 0 26.1085 pippo 26.1085
ODOM 2.82358 2.69521 0.994348 0 0 0 26.2274 pippo 26.2274
ODOM 2.89063 2.80198 0.995873 0 0 0 26.3473 pippo 26.3473
ODOM 2.89794 2.86797 0.997512 0 0 0 26.5086 pippo 26.5086
ODOM 2.98046 2.93356 0.998324 0 0 0 26.6728 pippo 26.6728
ODOM 3.01605 2.98258 1.00116 0 0 0 26.7902 pippo 26.7902
ODOM 3.01049 2.97392 1.00116 0 0 0 26.8877 pippo 26.8877
ODOM 3.03693 3.07011 1.00376 0 0 0 27.0127 pippo 27.0127
ODOM 3.06546 3.07208 1.00434 0 0 0 27.1284 pippo 27.1284
ODOM 3.09983 3.12935 1.00525 0 0 0 27.2483 pippo 27.2483
ODOM 3.13007 3.17014 1.00599 0 0 0 27.3675 pippo 27.3675
FLASER 181 5.14 5.09 5.14 5.04 4.99 4.94 4.89 4.89 4.89 4.79 4.74 4.69 4.69 4.69 4.69 4.64 4.64 2.74 2.57 2.84 4.59 4.54 4.49 4.54 4.49 4.49 4.49 4.44 4.49 4.49 4.44 4.44 4.44 4.44 4.54 4.44 4.44 4.44 4.54 4.54 4.49 4.49 4.54 4.59 4.59 4.64 4.64 4.64 4.69 2.84 2.59 4.79 4.69 4.79 4.84 4.94 4.94 4.94 4.99 5.09 5.14 5.14 5.14 5.24 5.34 5.44 5.44 5.39 5.19 5.09 4.99 4.99 4.99 5.09 5.19 5.34 5.39 5.44 6.54 6.64 6.89 6.94 7.04 7.14 7.34 7.59 5.29 5.14 5.14 5.19 5.29 9.24 9.29 12.84 10.74 12.59 12.64 12.94 13.74 12.34 51.14 51.14 14.34 12.69 12.69 12.64 12.69 12.54 12.49 12.49 12.44 12.44 12.29 12.24 12.24 12.09 14.59 51.14 51.14 13.49 13.14 11.59 11.49 11.54 11.59 11.69 11.69 11.54 2.59 2.64 2.64 2.54 2.59 2.74 2.79 2.79 2.94 17.49 17.69 16.59 16.39 2.39 2.34 2.34 2.29 2.14 2.14 2.12 2.14 2.24 2.24 2.24 2.29 2.39 3.14 3.04 3.04 3.09 3.09 3.19 3.24 3.09 4.04 3.19 4.19 3.79 16.64 2.84 3.24 3.24 5.99 2.89 2.84 2.84 2.94 1.19 1.24 6.09 5.29 1.09 50 3.17479 3.19923 1.00599 3.17479 3.19923 1.00599 27.3675 pippo 27.3675
ODOM 3.17479 3.19923 1.00599 0 0 0 0 pippo 0
NEFF 29.2037
ODOM 3.20947 3.25722 1.00728 0 0 0 27.4876 pippo 27.4876
ODOM 3.24483 3.30631 1.00933 0 0 0 27.6128 pippo 27.6128
ODOM 3.27506 3.36188 1.01149 0 0 0 27.7473 pippo 27.7473
ODOM 3.3046 3.41238 1.01262 0 0 0 27.8493 pippo 27.8493
ODOM 3.37132 3.51162 1.01404 0 0 0 27.9672 pippo 27.9672
ODOM 3.40171 3.56293 1.01499 0 0 0 28.0876 pippo 28.0876
ODOM 3.43582 3.61047 1.0173 0 0 0 28.2127 pippo 28.2127
ODOM 3.46064 3.66719 1.01773 0 0 0 28.3276 pippo 28.3276
ODOM 3.49518 3.71546 1.01947 0 0 0 28.4472 pippo 28.4472
ODOM 3.52514 3.76669 1.01991 0 0 0 28.5674 pippo 28.5674
ODOM 3.55964 3.81533 1.02158 0 0 0 28.6875 pippo 28.6875
ODOM 3.58878 3.87011 1.02356 0 0 0 28.8276 pippo 28.8276
ODOM 3.61952 3.9223 1.02599 0 0 0 28.9292 pippo 28.9292
ODOM 3.64936 3.96303 1.02555 0 0 0 29.0475 pippo 29.0475
ODOM 3.68356 4.02116 1.02785 0 0 0 29.1674 pippo 29.1674
ODOM 3.70894 4.06965 1.02909 0 0 0 29.3087 pippo 29.3087
FLASER 181 4.59 4.54 4.49 4.39 4.39 4.34 4.34 4.34 4.29 4.24 4.24 4.24 4.14 4.14 4.09 4.14 4.14 4.09 4.09 3.99 3.99 4.04 4.04 3.99 3.94 4.04 3.99 3.99 3.94 3.99 1.99 1.99 4.04 3.99 3.99 3.99 4.04 3.99 3.99 4.04 4.09 4.09 4.04 4.04 4.09 4.14 4.19 4.14 4.19 4.19 4.24 4.34 4.24 4.29 4.34 4.39 4.44 4.49 4.49 4.59 4.64 4.44 4.34 4.19 4.14 4.09 4.14 4.19 4.24 4.24 4.39 4.49 4.54 4.54 5.59 5.74 5.79 5.89 5.99 6.04 6.24 6.34 6.54 6.59 4.24 4.24 4.29 4.24 4.29 4.49 8.09 12.84 11.89 9.84 11.49 9.74 11.69 12.69 13.54 11.44 51.14 14.69 11.99 11.84 11.74 11.69 11.64 11.69 11.59 11.44 11.44 11.44 11.49 11.54 11.29 11.49 11.14 13.84 51.14 51.14 13.39 12.49 11.24 10.79 10.84 10.74 10.89 10.74 10.79 10.89 11.49 11.84 13.04 13.04 12.74 16.69 12.69 16.64 16.69 16.89 16.24 3.64 3.49 51.14 1.99 1.97 1.97 1.97 1.92 1.92 1.97 1.97 1.92 1.92 1.92 1.94 1.99 4.79 4.84 5.19 4.99 2.07 1.99 1.94 1.92 1.92 1.92 1.87 1.82 1.82 1.82 1.77 1.79 1.89 1.94 1.99 2.14 6.04 2.89 2.64 50 3.71408 4.02275 1.02909 3.71408 4.02275 1.02909 29.3087 pippo 29.3087
ODOM 3.71408 4.02275 1.02909 0 0 0 0 pippo 0
NEFF 28.9609
ODOM 3.75242 4.08821 1.03058 0 0 0 29.4273 pippo 29.4273
ODOM 3.79411 4.14886 1.0315 0 0 0 29.5887 pippo 29.5887
ODOM 3.80086 4.16228 1.03356 0 0 0 29.7273 pippo 29.7273
ODOM 3.82614 4.21128 1.03477 0 0 0 29.8484 pippo 29.8484
ODOM 3.8907 4.3209 1.03519 0 0 0 29.9726 pippo 29.9726
ODOM 3.92166 4.36371 1.03756 0 0 0 30.099 pippo 30.099
ODOM 3.95468 4.42062 1.0386 0 0 0 30.2184 pippo 30.2184
ODOM 3.97878 4.46744 1.04065 0 0 0 30.3383 pippo 30.3383
ODOM 4.0136 4.52781 1.04098 0 0 0 30.4642 pippo 30.4642
ODOM 4.04746 4.57618 1.04146 0 0 0 30.5779 pippo 30.5779
ODOM 4.08051 4.63401 1.05696 0 0 0 30.699 pippo 30.699
ODOM 4.09744 4.67218 1.06987 0 0 0 30.8136 pippo 30.8136
ODOM 4.12118 4.71902 1.08277 0 0 0 30.9285 pippo 30.9285
ODOM 4.15264 4.77331 1.09494 0 0 0 31.0473 pippo 31.0473
ODOM 4.17768 4.82282 1.11051 0 0 0 31.1728 pippo 31.1728
ODOM 4.20415 4.88544 1.15071 0 0 0 31.3007 pippo 31.3007
ODOM 4.22531 4.93776 1.17127 0 0 0 31.4176 pippo 31.4176
FLASER 181 3.74 3.79 3.69 3.64 3.69 3.64 3.64 3.59 3.64 3.59 3.59 3.54 3.59 3.59 3.54 3.49 3.49 3.49 3.49 3.49 3.49 3.49 3.49 3.49 3.44 3.44 3.49 3.49 3.49 3.49 3.49 3.54 3.54 3.54 3.49 3.54 3.54 3.54 3.59 3.64 3.64 3.64 3.74 3.69 3.74 3.69 3.54 3.39 3.29 3.19 3.14 3.19 3.24 3.24 3.29 3.34 3.39 3.39 3.44 3.54 3.54 3.59 4.59 4.54 4.64 4.74 4.84 4.89 4.94 4.99 5.14 5.24 5.39 5.39 3.29 3.24 3.19 3.19 3.19 3.14 3.19 3.34 10.19 7.09 11.09 10.74 11.69 8.84 10.54 8.69 10.94 11.74 12.44 10.39 13.19 51.14 10.89 10.89 10.79 10.69 10.64 10.74 10.64 10.54 10.49 10.49 10.49 10.54 10.44 10.39 10.44 10.19 12.74 51.14 51.14 12.44 11.49 11.29 10.19 9.89 9.99 9.94 9.94 9.99 10.04 10.14 10.59 10.84 12.24 12.39 11.94 15.84 12.19 15.94 16.24 16.34 15.29 15.04 51.14 51.14 16.99 16.99 17.19 17.49 17.79 15.19 14.74 14.29 14.09 3.14 2.99 2.94 8.49 3.19 3.14 3.04 4.09 5.09 4.19 4.34 4.74 4.79 4.29 4.49 4.94 4.64 1.84 1.74 1.64 1.57 1.57 1.62 1.62 1.62 1.62 1.62 1.67 1.62 1.67 1.72 50 4.19849 4.93464 1.14939 4.19849 4.93464 1.14939 31.4176 pippo 31.4176
ODOM 4.19849 4.93464 1.14939 0 0 0 0 pippo 0
NEFF 28.4301
ODOM 4.22438 4.98344 1.17007 0 0 0 31.5427 pippo 31.5427
ODOM 4.25018 5.03936 1.18952 0 0 0 31.6583 pippo 31.6583
ODOM 4.26215 5.09062 1.20934 0 0 0 31.7779 pippo 31.7779
ODOM 4.28862 5.14705 1.2286 0 0 0 31.898 pippo 31.898
ODOM 4.30407 5.20351 1.24936 0 0 0 32.0177 pippo 32.0177
ODOM 4.30089 5.2602 1.25219 0 0 0 32.1431 pippo 32.1431
ODOM 4.31661 5.25179 1.24753 0 0 0 32.258 pippo 32.258
ODOM 4.34179 5.30758 1.23053 0 0 0 32.3744 pippo 32.3744
ODOM 4.35886 5.36593 1.19427 0 0 0 32.4989 pippo 32.4989
ODOM 4.4105 5.48923 1.18526 0 0 0 32.6575 pippo 32.6575
ODOM 4.44055 5.55764 1.17525 0 0 0 32.8149 pippo 32.8149
ODOM 4.46428 5.62091 1.16898 0 0 0 32.9332 pippo 32.9332
ODOM 4.49103 5.67177 1.16525 0 0 0 33.0574 pippo 33.0574
ODOM 4.51309 5.72368 1.16269 0 0 0 33.1677 pippo 33.1677
ODOM 4.53618 5.77768 1.16774 0 0 0 33.2876 pippo 33.2876
ODOM 4.5578 5.82656 1.17639 0 0 0 33.4128 pippo 33.4128
ODOM 4.5816 5.8824 1.18183 0 0 0 33.5233 pippo 33.5233
FLASER 181 3.34 3.29 3.29 3.27 3.27 3.24 3.24 3.19 3.22 3.22 3.19 3.14 3.22 3.17 3.19 3.14 3.14 3.12 3.12 3.14 3.14 3.14 3.14 3.19 3.19 3.14 3.14 3.14 2.84 2.59 2.54 2.54 2.54 2.59 2.54 2.54 2.59 2.59 2.59 2.64 2.64 2.64 2.64 2.69 2.69 2.74 2.74 2.84 3.59 3.64 3.69 3.69 3.74 3.79 3.84 3.84 3.89 3.94 4.04 4.04 4.09 4.14 4.24 2.34 2.24 2.19 2.19 2.24 2.19 2.19 2.19 2.24 2.29 2.34 51.14 16.44 9.24 9.14 6.14 6.14 9.94 9.69 9.84 7.79 9.59 7.69 9.49 10.64 10.69 11.44 9.34 12.19 12.34 11.14 9.79 9.69 9.64 9.69 9.69 9.64 9.49 9.54 9.59 9.54 9.44 9.44 9.39 9.49 9.59 9.49 9.34 11.79 51.14 51.14 11.49 10.44 10.39 9.74 9.19 8.89 8.99 9.14 9.09 9.14 9.24 9.14 9.24 9.94 10.29 11.49 11.59 11.04 15.19 11.09 15.44 15.64 14.59 14.19 14.34 51.14 16.59 16.49 16.54 16.69 17.04 14.74 14.19 13.84 13.59 13.44 13.69 13.84 13.84 14.69 15.04 8.09 7.84 7.69 7.69 7.54 7.69 7.79 7.89 3.84 3.89 2.99 2.59 2.54 2.54 2.79 2.69 2.69 3.09 4.04 4.39 4.49 9.44 4.64 7.89 8.34 50 4.55194 5.93249 1.19589 4.55194 5.93249 1.19589 33.5233 pippo 33.5233
ODOM 4.55194 5.93249 1.19589 0 0 0 0 pippo 0
NEFF 27.5021
ODOM 4.54849 5.99034 1.20422 0 0 0 33.6456 pippo 33.6456
ODOM 4.59063 6.04975 1.22431 0 0 0 33.7684 pippo 33.7684
ODOM 4.58601 6.10616 1.24242 0 0 0 33.8876 pippo 33.8876
ODOM 4.61075 6.09929 1.27905 0 0 0 34.0136 pippo 34.0136
ODOM 4.62432 6.15649 1.29723 0 0 0 34.1326 pippo 34.1326
ODOM 4.63702 6.22249 1.3142 0 0 0 34.2485 pippo 34.2485
ODOM 4.64908 6.27149 1.33132 0 0 0 34.3674 pippo 34.3674
ODOM 4.6633 6.32923 1.34784 0 0 0 34.4879 pippo 34.4879
ODOM 4.67793 6.38634 1.37776 0 0 0 34.6085 pippo 34.6085
ODOM 4.69043 6.45135 1.38586 0 0 0 34.7252 pippo 34.7252
ODOM 4.69576 6.51038 1.38477 0 0 0 34.8484 pippo 34.8484
ODOM 4.72185 6.62636 1.38484 0 0 0 34.9676 pippo 34.9676
ODOM 4.73324 6.68089 1.38015 0 0 0 35.0823 pippo 35.0823
ODOM 4.74957 6.74705 1.37792 0 0 0 35.2228 pippo 35.2228
ODOM 4.75124 6.78625 1.37427 0 0 0 35.3176 pippo 35.3176
ODOM 4.76755 6.86416 1.37305 0 0 0 35.4556 pippo 35.4556
ODOM 4.77974 6.91239 1.36922 0 0 0 35.5785 pippo 35.5785
FLASER 181 2.25 2.25 2.28 2.28 2.25 2.25 2.25 2.25 2.28 2.25 2.28 2.25 2.33 2.2 2.25 2.25 2.3 2.9 2.95 3 2.95 3 3 3 3.05 3.05 3.1 3.05 3.1 3.15 3.15 1.85 1.5 1.5 1.45 1.45 1.4 1.4 1.45 1.4 1.4 1.35 1.45 1.45 1.4 1.45 1.4 1.5 1.8 3.8 3.85 3.9 3.95 51.15 51.15 51.15 17 51.15 51.15 51.15 15.8 51.15 51.15 5.35 5.15 5.15 8.15 8.4 7.15 8.7 6.75 8.7 8.55 6.75 8.65 8.8 9.5 9.65 8.4 10.55 11.1 11.15 10 8.85 8.8 8.7 8.55 8.7 8.6 8.65 8.55 8.55 8.5 8.5 8.55 8.55 8.45 8.45 8.5 8.5 8.5 8.55 8.2 9.65 51.15 51.15 9.4 9.15 9.3 8.7 8.4 8.05 8.05 8.2 8.15 8.3 8.25 8.3 8.35 8.4 9.25 10.6 10.6 10.5 14.35 14.4 10.35 15 13.95 13.45 13.5 51.15 51.15 15.8 15.75 16.05 16.35 16.6 13.8 13.55 13.35 13.1 12.95 13 13.1 13.25 14.2 14.55 14.45 14.8 20.5 7.65 7.55 7.4 7.25 7.2 7.1 7.3 7.5 7.65 7.85 8.15 8.4 7.15 7 6.95 6.9 5.15 3.58 3.88 4.3 3.65 3.75 3.56 3.75 3.8 8.25 4.05 2.45 2.4 50 4.79793 6.91467 1.38172 4.79793 6.91467 1.38172 35.5785 pippo 35.5785
ODOM 4.79793 6.91467 1.38172 0 0 0 0 pippo 0
NEFF 27.2999
ODOM 4.80301 6.94077 1.37688 0 0 0 35.7335 pippo 35.7335
ODOM 4.8194 7.01164 1.37522 0 0 0 35.8775 pippo 35.8775
ODOM 4.83262 7.06796 1.36944 0 0 0 35.9991 pippo 35.9991
ODOM 4.84507 7.13474 1.36842 0 0 0 36.1175 pippo 36.1175
ODOM 4.85662 7.18309 1.36419 0 0 0 36.2376 pippo 36.2376
ODOM 4.8695 7.25184 1.36254 0 0 0 36.3575 pippo 36.3575
ODOM 4.89465 7.36576 1.3598 0 0 0 36.4776 pippo 36.4776
ODOM 4.89541 7.36592 1.35433 0 0 0 36.6027 pippo 36.6027
ODOM 4.92118 7.49226 1.35194 0 0 0 36.7177 pippo 36.7177
ODOM 4.93143 7.53811 1.35117 0 0 0 36.8374 pippo 36.8374
ODOM 4.94598 7.60179 1.34864 0 0 0 36.9676 pippo 36.9676
ODOM 4.95757 7.65385 1.34858 0 0 0 37.0877 pippo 37.0877
ODOM 4.96985 7.71942 1.34473 0 0 0 37.2127 pippo 37.2127
ODOM 4.98294 7.77666 1.34311 0 0 0 37.325 pippo 37.325
ODOM 4.99427 7.8272 1.34149 0 0 0 37.4486 pippo 37.4486
ODOM 5.00745 7.89715 1.34136 0 0 0 37.5674 pippo 37.5674
FLASER 181 0.95 1 1 1 1 1 1 1.05 1 1.05 1.05 1.05 1.05 1.05 1.15 2.75 2.75 2.75 2.75 2.75 2.8 2.75 2.75 2.8 2.83 2.8 2.85 2.85 2.85 2.9 2.9 2.9 2.9 2.93 2.95 2.95 3 2.95 3.05 3.05 3.1 3.1 3.1 3.2 51.15 51.15 51.15 51.15 51.15 51.15 51.15 51.15 51.15 51.15 51.15 16.85 51.15 16.3 51.15 15.55 4.3 4.35 4.3 7.25 7.2 7.2 7.3 6.15 7.85 7.7 5.8 7.85 7.65 5.75 7.55 7.65 8.65 8.7 8.75 7.35 9.35 10.1 10.1 9.3 7.8 7.75 7.7 7.7 7.75 7.6 7.65 7.6 7.55 7.6 7.7 7.55 7.55 7.6 7.5 7.55 7.5 7.5 7.45 7.5 7.6 7.55 7.15 8.5 51.15 51.15 8.65 8.3 8.1 8.3 7.85 7.45 7.1 7.15 7.2 7.25 7.25 7.3 7.4 7.4 7.55 7.45 8.45 8.05 9.9 9.45 13 12.8 9.35 13.25 12.8 12.65 51.15 51.15 51.15 15.35 15.45 51.15 15.8 13.6 13.3 13 12.65 12.45 12.3 12.5 12.65 12.75 12.95 13.95 14.15 51.15 51.15 18.8 19.85 16.65 7.25 7.1 7.05 6.9 7 6.85 6.8 6.9 7.2 7.4 7.75 8.1 8.55 6.95 6.8 6.85 6.8 6.95 7.4 9.5 50 5.04224 7.90521 1.34136 5.04224 7.90521 1.34136 37.5674 pippo 37.5674
ODOM 5.04224 7.90521 1.34136 0 0 0 0 pippo 0
NEFF 26.2233
ODOM 5.06376 7.96191 1.34043 0 0 0 37.6878 pippo 37.6878
ODOM 5.07403 8.00793 1.33934 0 0 0 37.7878 pippo 37.7878
ODOM 5.08856 8.0862 1.33938 0 0 0 37.9247 pippo 37.9247
ODOM 5.09955 8.13533 1.33931 0 0 0 38.0526 pippo 38.0526
ODOM 5.11217 8.19111 1.33896 0 0 0 38.1574 pippo 38.1574
ODOM 5.12345 8.2418 1.33925 0 0 0 38.2776 pippo 38.2776
ODOM 5.1453 8.31214 1.33949 0 0 0 38.399 pippo 38.399
ODOM 5.15552 8.358 1.33998 0 0 0 38.5177 pippo 38.5177
ODOM 5.17315 8.43549 1.34133 0 0 0 38.6584 pippo 38.6584
ODOM 5.18587 8.4922 1.34275 0 0 0 38.7991 pippo 38.7991
ODOM 5.20218 8.57944 1.34302 0 0 0 38.9576 pippo 38.9576
ODOM 5.21521 8.63818 1.34427 0 0 0 39.0827 pippo 39.0827
ODOM 5.22776 8.69516 1.34677 0 0 0 39.205 pippo 39.205
ODOM 5.24768 8.74477 1.34769 0 0 0 39.3176 pippo 39.3176
ODOM 5.25911 8.81265 1.34871 0 0 0 39.4374 pippo 39.4374
ODOM 5.27123 8.86893 1.35016 0 0 0 39.5575 pippo 39.5575
ODOM 5.28412 8.92853 1.3504 0 0 0 39.6824 pippo 39.6824
FLASER 181 2.57 2.57 2.52 2.52 2.57 2.54 2.49 2.49 2.52 2.52 2.57 2.54 2.52 2.52 2.52 2.52 2.49 2.52 2.52 2.49 2.54 2.54 2.49 2.59 2.54 2.59 2.64 2.94 51.14 51.14 51.14 51.14 51.14 51.14 51.14 51.14 51.14 51.14 51.14 51.14 51.14 51.14 51.14 51.14 51.14 51.14 51.14 17.64 51.14 16.99 16.94 3.44 3.34 3.34 15.29 15.34 14.79 14.59 6.29 6.34 6.34 6.34 5.04 7.14 6.89 4.89 6.79 7.54 4.79 4.69 6.64 6.59 6.69 6.74 7.54 7.54 7.69 6.34 8.24 8.39 8.99 9.04 8.09 6.79 6.74 6.64 6.69 6.69 6.64 6.54 6.59 6.59 6.54 6.59 6.49 6.44 6.44 6.54 6.54 6.49 6.44 6.49 6.44 6.54 6.49 6.49 6.49 6.54 6.19 51.14 51.14 51.14 8.69 7.54 7.39 7.34 7.39 6.99 6.54 6.39 6.19 6.19 6.34 6.34 6.39 6.34 6.44 6.44 6.64 6.59 6.59 7.09 9.14 8.54 13.04 13.24 8.69 12.14 12.04 51.14 51.14 51.14 14.74 14.79 14.94 15.19 13.04 12.79 12.44 12.24 12.09 11.94 11.84 11.94 12.04 12.24 13.34 13.74 13.74 20.69 19.29 19.59 16.34 16.24 21.29 18.89 15.04 14.99 6.89 6.89 6.79 6.74 6.74 6.74 6.54 6.69 7.04 7.49 7.89 8.44 50 5.2746 8.90766 1.34415 5.2746 8.90766 1.34415 39.6824 pippo 39.6824
ODOM 5.2746 8.90766 1.34415 0 0 0 0 pippo 0
NEFF 26.8829
ODOM 5.28347 8.96392 1.3469 0 0 0 39.804 pippo 39.804
ODOM 5.29657 9.02306 1.34758 0 0 0 39.9175 pippo 39.9175
ODOM 5.30955 9.08091 1.34908 0 0 0 40.0376 pippo 40.0376
ODOM 5.33097 9.13694 1.35086 0 0 0 40.1526 pippo 40.1526
ODOM 5.34119 9.19801 1.35205 0 0 0 40.2777 pippo 40.2777
ODOM 5.33515 9.25353 1.35827 0 0 0 40.3992 pippo 40.3992
ODOM 5.36538 9.31157 1.36019 0 0 0 40.5227 pippo 40.5227
ODOM 5.35849 9.37768 1.36299 0 0 0 40.6374 pippo 40.6374
ODOM 5.37084 9.43611 1.36687 0 0 0 40.7677 pippo 40.7677
ODOM 5.38917 9.43747 1.36979 0 0 0 40.888 pippo 40.888
ODOM 5.39777 9.47699 1.38316 0 0 0 40.9878 pippo 40.9878
ODOM 5.41019 9.55151 1.42607 0 0 0 41.1226 pippo 41.1226
ODOM 5.4204 9.60473 1.45536 0 0 0 41.2376 pippo 41.2376
ODOM 5.42196 9.66118 1.48542 0 0 0 41.3577 pippo 41.3577
ODOM 5.42264 9.72398 1.5242 0 0 0 41.4742 pippo 41.4742
ODOM 5.42175 9.83632 1.56513 0 0 0 41.5881 pippo 41.5881
ODOM 5.42665 9.84812 1.65903 0 0 0 41.7284 pippo 41.7284
ODOM 5.40821 9.96765 1.71778 0 0 0 41.8879 pippo 41.8879
FLASER 181 2.6 2.65 51.15 2.75 51.15 51.15 51.15 51.15 51.15 51.15 51.15 51.15 51.15 51.15 51.15 2.9 2.7 2.6 2.65 2.65 51.15 19.5 18.6 51.15 51.15 16.9 51.15 15.85 15.9 15 15.05 51.15 5.55 5.4 5.35 4.25 5.5 4 3.9 5.9 5.85 5.85 3.8 6.6 5.55 5.65 5.65 5.65 5.7 5.75 6.55 6.4 6.4 6.35 5.2 7.15 7.2 7.3 8.05 7.9 7.15 5.7 5.7 5.65 5.65 5.6 5.55 5.55 5.6 5.5 5.45 5.45 5.45 5.45 5.45 5.45 5.4 5.4 5.4 5.45 5.35 5.4 5.4 5.35 5.4 5.45 5.5 5.45 5.45 5.45 5.5 5.2 51.15 51.15 6.45 8 6.85 6.75 7.1 6.65 6.35 6.05 5.8 5.55 5.55 5.3 5.2 5.35 5.4 5.4 5.45 5.5 5.55 5.65 5.7 5.75 5.8 6.3 6.4 7.6 7.55 7.65 7.75 51.15 51.15 51.15 14.15 14.4 14.6 14.7 15 12.15 12 11.9 11.55 11.45 11.3 11.35 11.55 11.75 11.9 13.25 13.2 19.1 19.05 19.35 15.85 15.85 20.2 15.7 20.3 14.25 19.55 14.6 14.55 14.7 6.75 6.7 6.7 6.65 6.65 6.65 6.6 6.5 6.6 7.25 8.35 8.4 8.4 18.4 7 6.93 6.85 6.83 6.95 11.65 11.65 11.65 6.85 8.3 50 5.477 9.9883 1.69278 5.477 9.9883 1.69278 41.8879 pippo 41.8879
ODOM 5.477 9.9883 1.69278 0 0 0 0 pippo 0
NEFF 26.5387
ODOM 5.46091 10.0423 1.82481 0 0 0 42.0276 pippo 42.0276
ODOM 5.43888 10.0913 1.89511 0 0 0 42.1678 pippo 42.1678
ODOM 5.43397 10.1134 1.97354 0 0 0 42.2724 pippo 42.2724
ODOM 5.4231 10.1659 2.05194 0 0 0 42.3878 pippo 42.3878
ODOM 5.40316 10.1956 2.20591 0 0 0 42.5085 pippo 42.5085
FLASER 181 15.9 15.85 15.05 5.5 5.4 5.3 5.3 5.35 3.9 3.9 6.05 5.55 3.75 3.65 6.2 5.5 5.35 5.7 5.55 5.5 5.5 5.55 6.55 6.35 6.25 5.1 5.15 7.1 7.05 7 7.15 7.85 7.85 6.75 5.5 5.45 5.45 5.45 5.35 5.3 5.35 5.3 5.3 5.2 5.25 5.25 5.3 5.2 5.2 5.15 5.15 5.2 5.15 5.15 5.15 5.15 5.15 5.2 5.15 5.15 5.2 5.2 5.2 5.25 5.05 4.9 51.15 51.15 6.2 7.7 6.55 6.6 6.6 6.3 6.05 5.75 5.5 5.3 5.2 5.1 4.95 5.1 5.15 5.15 5.25 5.3 5.35 5.4 5.45 5.5 5.55 5.6 6.1 7.5 7.7 7.75 7.95 11.25 51.15 51.15 13.95 14.05 14.35 14.5 14.75 11.95 11.85 11.7 11.4 11.35 11.2 11.15 11.15 11.3 11.65 12.85 13 18.8 18.8 18.95 15.8 15.55 18.65 19.95 20.35 14.25 14.5 51.15 14.4 14.4 15 15.9 6.55 6.6 6.55 6.5 6.45 6.5 6.5 6.45 6.4 7.7 8.3 8.35 8.4 16.5 6.85 6.8 6.85 6.85 11.35 11.35 11.4 8.25 6.75 8.2 6.8 11.55 13.25 12.65 5.4 5.35 5.4 5.4 5.5 4.85 4.88 4.85 4.95 4.95 4.55 4.55 4.35 4.4 4.65 4.45 4.5 7.7 7.8 7.85 50 5.38343 10.2021 2.15591 5.38343 10.2021 2.15591 42.5085 pippo 42.5085
ODOM 5.38343 10.2021 2.15591 0 0 0 0 pippo 0
NEFF 24.7736
ODOM 5.35054 10.2028 2.23324 0 0 0 42.6441 pippo 42.6441
ODOM 5.32462 10.2747 2.31004 0 0 0 42.7674 pippo 42.7674
ODOM 5.29027 10.2675 2.3774 0 0 0 42.8728 pippo 42.8728
ODOM 5.2565 10.2974 2.43417 0 0 0 42.9885 pippo 42.9885
ODOM 5.21084 10.3374 2.51945 0 0 0 43.1177 pippo 43.1177
ODOM 5.17712 10.3678 2.5564 0 0 0 43.2424 pippo 43.2424
ODOM 5.13015 10.3918 2.59341 0 0 0 43.3532 pippo 43.3532
ODOM 5.04071 10.438 2.62907 0 0 0 43.4574 pippo 43.4574
ODOM 4.99276 10.4639 2.66369 0 0 0 43.5776 pippo 43.5776
FLASER 181 5.25 5.2 5.15 5.1 5.05 5.1 5.1 5.05 5 5 4.95 5 5 4.95 4.95 4.9 4.95 4.95 4.9 4.9 4.9 4.9 4.9 4.85 4.9 4.9 4.9 4.65 51.15 51.15 6 5.95 5.95 6.6 6.05 6.2 6.35 5.95 5.6 5.35 5.1 4.9 4.85 4.6 4.6 4.65 4.7 4.75 4.85 4.8 4.85 4.95 5.05 5.1 5.05 5.15 5.25 5.65 5.8 6.9 6.95 6.95 7.1 10.85 51.15 51.15 13.4 13.55 13.85 14.05 14.2 11.55 11.45 11.35 11.2 10.9 10.8 10.7 10.6 10.9 11.05 11.25 12.4 12.6 18.6 18.6 18.65 15.2 15.2 17.55 15.2 15 14.6 18.95 51.15 13.95 13.9 14 14.65 18.45 6.25 6.2 6.15 6.15 6.1 6.15 6.1 6.1 6.05 6.05 8 7.98 7.9 17.35 14.85 6.6 6.45 6.48 6.5 6.5 11.1 18.15 7.85 8.65 6.55 11.25 6.45 12.55 12.4 11.75 5.2 5.1 5.1 5.15 5.2 5.2 4.7 4.65 4.7 4.75 4.7 4.75 4.35 4.45 4.2 4.2 4.4 4.3 4.35 7.75 10.95 10.95 6.9 6.95 9.95 6.3 6.1 6.45 12.15 6.3 5.9 4.25 4.25 4 4.1 5.6 5.6 5.7 5.85 16.1 16.15 5.75 5.7 5.1 4.9 4.95 5 5.05 5.05 5.15 50 5.03881 10.4761 2.73244 5.03881 10.4761 2.73244 43.5776 pippo 43.5776
ODOM 5.03881 10.4761 2.73244 0 0 0 0 pippo 0
NEFF 23.2426
ODOM 4.98936 10.4992 2.8064 0 0 0 43.699 pippo 43.699
ODOM 4.93853 10.5178 2.84251 0 0 0 43.8177 pippo 43.8177
ODOM 4.88305 10.5323 2.87712 0 0 0 43.953 pippo 43.953
ODOM 4.83257 10.544 2.90088 0 0 0 44.0739 pippo 44.0739
ODOM 4.77265 10.5583 2.94222 0 0 0 44.1992 pippo 44.1992
ODOM 4.72317 10.5716 2.9607 0 0 0 44.3176 pippo 44.3176
ODOM 4.65766 10.5833 2.98047 0 0 0 44.4414 pippo 44.4414
ODOM 4.59432 10.5876 2.99798 0 0 0 44.5675 pippo 44.5675
ODOM 4.55123 10.599 3.0157 0 0 0 44.6725 pippo 44.6725
ODOM 4.49343 10.6032 3.03309 0 0 0 44.7878 pippo 44.7878
ODOM 4.40872 10.6098 3.06467 0 0 0 44.9676 pippo 44.9676
ODOM 4.40695 10.6102 3.09204 0 0 0 45.1086 pippo 45.1086
ODOM 4.34205 10.6123 3.10629 0 0 0 45.2276 pippo 45.2276
ODOM 4.2864 10.6157 3.11865 0 0 0 45.3446 pippo 45.3446
ODOM 4.16356 10.6183 3.13102 0 0 0 45.4577 pippo 45.4577
ODOM 4.10878 10.6122 3.14145 0 0 0 45.5925 pippo 45.5925
ODOM 4.05741 10.6174 -3.131 0 0 0 45.7087 pippo 45.7087
FLASER 181 5.85 5.95 6.45 5.55 4.85 4.55 4.45 4.2 4.28 4.25 4.25 4.25 4.33 4.4 4.4 4.4 4.4 4.45 4.5 4.5 4.55 4.5 4.6 5 5.05 5.1 6.95 6.55 6.35 6.25 6.25 6.3 10.05 9.95 10 51.15 51.15 51.15 12.6 12.65 12.8 13 13.3 13.6 10.65 10.45 10.35 10.35 10.15 9.85 9.65 9.7 10.05 10.25 10.4 11.4 11.65 11.65 17.65 17.55 17.5 15.9 14.35 16.5 14 13.95 18.95 12.85 18.15 51.15 12.8 12.9 13.65 14.75 17.4 5.2 5.15 5.2 5.15 5.15 5.15 5.15 5.1 5.1 5.1 5.1 6.85 6.95 7 7.35 14.75 17.05 5.65 5.45 5.65 5.55 5.53 5.55 51.15 13.25 7.1 7.4 7 5.55 11.8 5.65 10.85 10.85 11 18.65 18.75 4.4 4.25 4.35 4.3 4.3 4.35 4.6 4.25 3.95 3.9 3.85 3.9 3.95 3.95 3.95 4.65 3.65 3.55 3.5 3.45 3.45 3.55 3.65 3.7 6.3 51.15 12 11.8 11.6 5.45 11.35 5.8 10.9 5.35 5.2 5.2 5.4 5.25 3.75 3.8 5.15 3.6 3.75 8.8 16.35 5.4 5.4 5.4 5 4.85 4.7 4.7 4.8 4.85 4.95 15.45 15.6 15 14.65 13.75 13.5 15 13.45 14.3 14 14.05 15 15.05 14.05 50 4.03515 10.6106 -3.1185 4.03515 10.6106 -3.1185 45.7087 pippo 45.7087
ODOM 4.03515 10.6106 -3.1185 0 0 0 0 pippo 0
NEFF 23.0147
ODOM 3.96778 10.6134 -3.1215 0 0 0 45.8277 pippo 45.8277
ODOM 3.90223 10.6076 -3.12804 0 0 0 45.9464 pippo 45.9464
ODOM 3.85404 10.6121 -3.13797 0 0 0 46.0685 pippo 46.0685
ODOM 3.78826 10.6059 3.13229 0 0 0 46.1879 pippo 46.1879
ODOM 3.74277 10.6092 3.09984 0 0 0 46.3123 pippo 46.3123
ODOM 3.66814 10.6131 3.08292 0 0 0 46.4253 pippo 46.4253
ODOM 3.62013 10.6167 3.05977 0 0 0 46.5485 pippo 46.5485
ODOM 3.5544 10.6318 3.0257 0 0 0 46.6786 pippo 46.6786
ODOM 3.51683 10.6312 2.97624 0 0 0 46.7776 pippo 46.7776
ODOM 3.51446 10.6516 2.86747 0 0 0 46.899 pippo 46.899
ODOM 3.41506 10.6674 2.80977 0 0 0 47.0245 pippo 47.0245
ODOM 3.36289 10.6904 2.75337 0 0 0 47.1525 pippo 47.1525
ODOM 3.31659 10.7158 2.68811 0 0 0 47.2675 pippo 47.2675
ODOM 3.31395 10.746 2.6257 0 0 0 47.3877 pippo 47.3877
FLASER 181 5.25 5.2 5.2 5.1 5.1 5.05 5 5.1 4.9 4.55 4.8 5.15 5.4 5.9 6.3 6.9 7.15 5.85 5.55 51.15 6.6 5.8 5.85 6.8 4.4 4.05 4.13 4.1 4.1 4.05 4.1 4.13 4.1 4.15 4.15 4.15 4.15 4.2 4.2 4.25 4.2 4.2 4.6 4.7 4.6 4.65 4.7 6.5 6.55 6.65 6.1 5.8 5.85 5.85 5.9 10.7 10 9.7 9.55 9.45 9.55 51.15 51.15 51.15 11.9 12.1 12.2 12.25 12.45 12.65 10.2 9.9 9.7 9.7 9.55 9.4 9.2 9.1 9.2 9.35 9.55 9.75 10.7 11 10.9 18 16.9 17 16.95 15.15 13.5 15.85 17.9 13.35 13.35 12.1 17.3 51.15 12.25 12.15 12.1 12.75 13.85 4.43 4.4 4.38 4.38 4.38 4.38 4.38 4.33 4.38 4.33 4.28 4.3 4.4 6.18 6.2 6.25 6.25 13.8 13.95 7.7 4.95 4.7 4.75 4.8 4.8 4.83 11 12.5 9.8 6.25 7.05 6.25 4.8 10.75 10.4 4.95 10.2 10.2 18 18.2 18.55 8.95 8.6 3.9 3.65 3.6 3.65 3.6 3.65 3.65 3.7 5.55 3.65 3.4 3.25 3.25 3.35 3.35 3.35 3.35 3.4 6.45 3.95 3.2 3.1 3.1 3.05 3.1 3.05 2.93 3.05 3.2 3.3 10.55 5.3 6.55 5.45 50 3.23855 10.7327 2.65695 3.23855 10.7327 2.65695 47.3877 pippo 47.3877
ODOM 3.23855 10.7327 2.65695 0 0 0 0 pippo 0
NEFF 21.7593
ODOM 3.19766 10.7505 2.52868 0 0 0 47.5064 pippo 47.5064
ODOM 3.1615 10.7481 2.46454 0 0 0 47.6175 pippo 47.6175
ODOM 3.12622 10.7787 2.39795 0 0 0 47.7424 pippo 47.7424
ODOM 3.08396 10.8237 2.33072 0 0 0 47.8574 pippo 47.8574
ODOM 3.01206 10.9117 2.20018 0 0 0 48.0177 pippo 48.0177
ODOM 2.9741 10.9853 2.13501 0 0 0 48.1774 pippo 48.1774
FLASER 181 7.05 7.1 7.2 6.2 6.25 7.65 7.6 7.6 7.65 7.95 7.95 6.35 6.15 6.05 5.95 5.9 5.85 5.75 5.65 5.65 5.55 5.55 5.4 5.35 5.3 5.25 5.25 5.2 5.05 5 5 5 5 4.9 4.85 4.5 4.65 4.85 5.1 5.4 5.75 6.15 6.65 7 51.15 51.15 51.15 6.9 5.41 5.63 4.25 3.9 3.9 3.88 3.93 3.9 3.95 3.9 3.9 3.85 3.9 3.95 3.9 3.9 3.95 3.9 3.95 4 4 3.95 4.4 4.35 4.35 4.45 4.45 6.2 6.25 6.35 6.3 5.55 5.5 5.55 5.6 5.6 10.3 10.35 9.5 9.35 9.15 9.15 51.15 51.15 51.15 11.55 11.55 11.65 11.8 12 12.3 12.45 9.7 9.55 9.5 9.45 9.15 9.05 8.85 8.75 8.9 8.95 9.1 9.3 9.55 10.55 10.55 10.55 16.65 16.6 16.45 14.8 13.25 13.2 15.3 12.9 12.85 11.65 11.75 13.35 13.05 11.7 11.7 11.95 12.6 16.4 16.35 4.15 4.13 4.13 4.13 4.08 4.13 4.13 4.03 4.03 4.03 4.03 4.03 4 4.08 5.93 5.95 6 13.85 6.35 7.3 7.15 4.85 4.55 4.5 4.5 4.55 4.6 4.6 9.5 6.2 9.4 9.45 6.15 10.5 4.65 9.85 9.95 4.75 18.15 18.2 18.3 8.8 8.65 8.45 8.4 50 2.97205 10.9541 2.13188 2.97205 10.9541 2.13188 48.1774 pippo 48.1774
ODOM 2.97205 10.9541 2.13188 0 0 0 0 pippo 0
NEFF 17.8691
ODOM 2.94914 10.9929 2.00353 0 0 0 48.2985 pippo 48.2985
ODOM 2.92479 11.0457 1.94162 0 0 0 48.4175 pippo 48.4175
ODOM 2.90763 11.1098 1.8792 0 0 0 48.5375 pippo 48.5375
ODOM 2.89237 11.1563 1.81529 0 0 0 48.6721 pippo 48.6721
ODOM 2.88255 11.2208 1.75402 0 0 0 48.7877 pippo 48.7877
ODOM 2.87229 11.267 1.63273 0 0 0 48.9084 pippo 48.9084
ODOM 2.86968 11.319 1.56982 0 0 0 49.0176 pippo 49.0176
FLASER 181 51.15 51.15 51.15 51.15 51.15 51.15 51.15 51.15 51.15 51.15 51.15 51.15 5.55 5.55 5.35 5.25 6.95 6.95 7.05 7.15 20.35 7.05 7.2 7.25 6.8 6.8 6.6 7 7 7 6.05 6.1 7.55 7.5 7.4 7.35 7.55 7.85 6.15 5.95 5.95 5.8 5.8 5.65 5.55 5.45 5.4 5.35 5.35 5.15 5.1 5.1 5.05 4.95 4.9 4.85 4.8 4.75 4.7 4.65 4.6 4.55 4.2 4.35 4.45 4.65 4.95 5.15 5.5 5.8 6.1 6.55 5.45 5.2 51.15 6.6 5.28 5.21 3.9 3.55 3.53 3.58 3.58 3.58 3.53 3.55 3.5 3.55 3.5 3.55 3.6 3.5 3.53 3.63 3.58 3.6 3.58 3.55 3.63 4 3.95 3.95 3.95 4.05 4.05 5.8 5.8 5.85 5.9 5.4 5.25 5.15 5.15 5.2 5.2 10 10 9.15 9 8.75 8.75 51.15 8.6 8.75 8.85 11.1 11.25 11.5 11.7 11.85 11.95 9.55 9.35 9.2 8.95 9 8.85 8.55 8.4 8.35 8.45 8.6 8.9 9.15 9.35 10.4 10.25 17.6 16.25 16.3 16.1 14.45 12.95 13.15 15.35 12.6 12.6 12.4 12.55 51.15 51.15 11.5 11.55 11.75 12.45 16.1 16 10.6 10.6 16.15 3.9 3.93 3.93 3.93 3.93 3.93 3.93 3.88 3.88 3.93 50 2.85804 11.3508 1.60107 2.85804 11.3508 1.60107 49.0176 pippo 49.0176
ODOM 2.85804 11.3508 1.60107 0 0 0 0 pippo 0
NEFF 16.5165
ODOM 2.8536 11.4099 1.53778 0 0 0 49.1376 pippo 49.1376
ODOM 2.8635 11.4017 1.47743 0 0 0 49.2476 pippo 49.2476
ODOM 2.86886 11.5262 1.41605 0 0 0 49.3885 pippo 49.3885
ODOM 2.88692 11.5202 1.29346 0 0 0 49.5086 pippo 49.5086
ODOM 2.89662 11.5689 1.22852 0 0 0 49.6084 pippo 49.6084
ODOM 2.91928 11.6175 1.16206 0 0 0 49.7275 pippo 49.7275
ODOM 2.9787 11.7234 1.10321 0 0 0 49.8473 pippo 49.8473
ODOM 2.97367 11.7192 1.04222 0 0 0 49.9878 pippo 49.9878
FLASER 181 2.25 2.28 2.55 5.45 5.4 5.4 5.4 5.35 8.45 9.3 6.45 6.45 6.35 6.3 6.35 6.45 7.3 7.4 8.5 14.9 15 17.1 51.15 4.9 4.9 5 51.15 51.15 36.8 36.7 36.9 36.45 51.15 51.15 51.15 51.15 51.15 51.15 51.15 51.15 51.15 51.15 5.45 5.3 5.15 5.1 6.9 6.8 6.8 6.85 6.85 51.15 51.15 7.4 6.9 6.7 6.5 6.4 6.4 6.4 6.35 5.8 5.8 7.45 7.15 6.95 7 7.05 7.2 7.55 5.75 5.65 5.6 5.5 5.35 5.2 5.15 5.1 5.05 4.95 4.85 4.8 4.75 4.7 4.65 4.6 4.5 4.45 4.4 4.35 4.3 4.3 4.2 4.2 4.2 3.75 3.85 3.95 4.15 4.4 4.6 4.8 5.05 5.2 5.05 5 4.9 4.65 4.6 5.25 51.15 5.6 4.86 3.4 3.1 3.08 3.08 3.13 3.13 3.13 3.08 3.13 3.13 3.13 3.08 3.13 3.18 3.18 3.13 3.18 3.13 3.18 3.18 3.18 3.18 3.18 3.2 3.5 4.05 4 3.6 5.4 5.45 5.45 5.45 5.55 5.6 5.05 5.1 5.15 5.1 5.15 5.05 8.85 8.65 8.5 8.5 8.6 8.15 8.25 8.35 8.6 11.05 11.1 11.25 11.55 11.8 12 9.15 9 8.9 8.85 8.75 8.55 8.4 8.3 8.2 8.3 8.45 8.6 50 2.95303 11.7673 1.00472 2.95303 11.7673 1.00472 49.9878 pippo 49.9878
ODOM 2.95303 11.7673 1.00472 0 0 0 0 pippo 0
NEFF 15.99
ODOM 3.02457 11.855 0.941931 0 0 0 50.0876 pippo 50.0876
ODOM 3.02463 11.8594 0.818996 0 0 0 50.2252 pippo 50.2252
ODOM 3.10532 11.9316 0.756876 0 0 0 50.3275 pippo 50.3275
ODOM 3.15771 11.9805 0.69581 0 0 0 50.4676 pippo 50.4676
ODOM 3.18879 12.0062 0.636933 0 0 0 50.582 pippo 50.582
ODOM 3.24603 12.047 0.559756 0 0 0 50.7085 pippo 50.7085
ODOM 3.29646 12.0836 0.531439 0 0 0 50.8281 pippo 50.8281
ODOM 3.34898 12.1101 0.501174 0 0 0 50.9522 pippo 50.9522
FLASER 181 1.48 1.5 1.6 5.1 5.05 5.1 5.1 5.35 6.2 6.2 6.35 6.4 6.45 6.6 6.4 6.45 6.25 6.15 6.05 6 5.9 5.8 5.7 5.7 5.65 5.6 5.45 5.45 5.3 5.3 5.25 5.15 5.15 6.3 8.05 6.45 6.2 6.15 6.2 6.15 6.2 6.25 6.85 7.15 7.25 8.25 16.15 14.65 4.75 4.65 4.6 4.7 51.15 4.75 51.15 51.15 51.15 51.15 36.45 36.55 36.05 51.15 51.15 51.15 51.15 51.15 51.15 51.15 51.15 5.05 4.95 4.65 4.7 51.15 6.45 6.35 6.3 6.3 6.4 19.8 51.15 6.9 6.5 6.1 6.2 6 5.9 5.9 5.95 5.4 5.4 5.4 7.1 6.65 6.6 6.6 6.6 6.65 7.05 5.35 5.25 5.05 5 4.9 4.9 4.8 4.7 4.65 4.55 4.45 4.4 4.35 4.25 4.25 4.25 4.15 4.1 4.05 4.05 4 3.9 3.9 3.85 3.85 3.75 3.75 3.7 3.3 3.45 3.55 3.75 4 4.1 4.4 4.65 4.9 5.35 4.7 4.45 4.3 4.15 4.7 51.15 5.3 4.43 4.53 4.58 3.35 3.1 2.78 2.78 2.78 2.78 2.78 2.78 2.78 2.78 2.83 2.88 2.83 2.83 2.88 2.88 2.88 2.88 2.88 2.93 2.93 2.93 2.98 2.98 2.98 2.98 3.05 3.4 3.4 3.4 3.5 3.55 5.5 50 3.30389 12.0824 0.488674 3.30389 12.0824 0.488674 50.9522 pippo 50.9522
ODOM 3.30389 12.0824 0.488674 0 0 0 0 pippo 0
NEFF 15.9797
ODOM 3.32043 12.0971 0.430991 0 0 0 51.1119 pippo 51.1119
ODOM 3.44685 12.1442 0.401668 0 0 0 51.2724 pippo 51.2724
ODOM 3.438 12.1399 0.375709 0 0 0 51.3723 pippo 51.3723
ODOM 3.5013 12.1669 0.318511 0 0 0 51.5086 pippo 51.5086
ODOM 3.54693 12.1789 0.290998 0 0 0 51.6085 pippo 51.6085
ODOM 3.61007 12.195 0.263841 0 0 0 51.7275 pippo 51.7275
ODOM 3.73152 12.2233 0.236562 0 0 0 51.8475 pippo 51.8475
ODOM 3.72766 12.2274 0.208197 0 0 0 51.9826 pippo 51.9826
ODOM 3.7949 12.2362 0.156216 0 0 0 52.1085 pippo 52.1085
ODOM 3.89742 12.2562 0.130742 0 0 0 52.2082 pippo 52.2082
ODOM 3.96438 12.2639 0.105725 0 0 0 52.3274 pippo 52.3274
ODOM 4.0293 12.2625 0.0803089 0 0 0 52.452 pippo 52.452
ODOM 4.08123 12.2689 0.0500969 0 0 0 52.5816 pippo 52.5816
ODOM 4.14951 12.2677 -0.0279901 0 0 0 52.6988 pippo 52.6988
FLASER 181 12.95 12.8 13 12.9 17.45 12.9 13.05 17.05 9.85 12.55 12.15 16 15.1 13.95 13.1 12.4 11.8 11.2 10.7 10.1 9.8 9.6 4.9 4.8 4.85 4.9 5.2 6.25 6.05 5.9 6 6.05 6.1 6.15 6.3 6.15 6.05 5.9 5.65 5.6 5.55 5.5 5.3 5.25 5.2 5.15 5.05 4.9 4.8 4.8 4.7 4.6 4.6 4.6 5.45 5.65 7 7.1 5.65 5.6 5.55 5.45 5.5 5.5 5.55 5.7 6.2 6.4 6.45 7.5 7.6 3.85 3.9 3.85 3.95 4 3.93 3.94 3.95 51.15 4.15 51.15 51.15 51.15 51.15 51.15 51.15 51.15 35.15 51.15 51.15 51.15 51.15 51.15 51.15 51.15 4.1 4.15 3.85 3.85 51.15 51.15 5.6 5.5 5.45 5.5 5.5 5.65 18.7 5.65 6.25 5.7 5.4 5.1 5.25 5.2 5.1 5.1 5.05 5.2 4.55 4.45 4.45 6.4 5.85 5.75 5.7 5.7 5.8 6.15 6.25 6.15 4.45 4.4 4.35 4.3 4.2 4.15 4.1 4.05 4 3.9 3.85 3.85 3.8 3.8 3.7 3.65 3.6 3.6 3.55 3.5 3.5 3.45 3.5 3.4 3.35 3.38 3.38 3.35 3.3 3.3 3.28 3.23 3.28 3.25 3.2 3.2 3.2 2.85 3.05 3.4 3.9 4.6 5.5 4.35 4.3 4.15 4 3.9 50 4.17452 12.2345 0.00950983 4.17452 12.2345 0.00950983 52.6988 pippo 52.6988
ODOM 4.17452 12.2345 0.00950983 0 0 0 0 pippo 0
NEFF 16.1619
ODOM 4.22376 12.2328 -0.0313002 0 0 0 52.8176 pippo 52.8176
ODOM 4.29378 12.2328 -0.0742882 0 0 0 52.9374 pippo 52.9374
ODOM 4.33886 12.2248 -0.117026 0 0 0 53.0585 pippo 53.0585
ODOM 4.41687 12.2151 -0.159753 0 0 0 53.182 pippo 53.182
ODOM 4.4646 12.209 -0.250424 0 0 0 53.3038 pippo 53.3038
ODOM 4.52499 12.1892 -0.293619 0 0 0 53.4237 pippo 53.4237
ODOM 4.58596 12.1694 -0.339578 0 0 0 53.5376 pippo 53.5376
ODOM 4.6266 12.1536 -0.389566 0 0 0 53.6575 pippo 53.6575
ODOM 4.68572 12.1282 -0.444318 0 0 0 53.7729 pippo 53.7729
ODOM 4.73025 12.0982 -0.500076 0 0 0 53.8937 pippo 53.8937
FLASER 181 6.85 6.9 5.5 5.45 6.9 5.3 10.35 18 7 7.05 6.55 6.35 6.35 6.4 6.55 22.2 17.2 17.05 17.3 16.35 16.25 15 16.55 14.95 15.8 15.5 16.5 16.55 16.7 12.8 12.75 12.6 15.95 17.35 12.85 16.9 9.5 16.6 9.6 8.4 16.35 14.9 13.8 12.95 12.1 11.4 10.65 4.6 4.5 4.55 4.55 4.6 8 6.15 5.9 5.65 5.55 5.55 5.6 5.65 5.8 5.8 5.8 5.6 5.5 5.45 5.25 5.05 5 4.9 4.8 4.75 4.6 4.55 4.5 4.35 4.3 4.25 4.15 4.1 4.1 4.15 4.25 4.95 5.15 6.3 6.5 6.75 5 4.95 4.95 4.9 4.9 5 5 5.1 5.7 5.7 5.85 5.95 6.9 3.35 3.25 3.25 3.3 3.3 3.35 3.3 3.34 3.3 3.3 3.45 3.45 51.15 51.15 51.15 51.15 35.3 51.15 51.15 34.65 51.15 51.15 51.15 51.15 51.15 51.15 51.15 51.15 51.15 51.15 3.6 3.6 3.4 3.3 3.3 5.15 5.05 4.95 4.95 4.95 5 5.15 18.25 5.3 5.1 5.15 5.35 4.75 4.7 4.8 4.75 4.65 4.7 4.7 4.7 4.75 5.85 4.1 4.15 5.4 5.35 5.35 5.4 5.5 5.65 5.9 5.85 5.9 5.85 4.2 4.15 4.1 4 4 3.95 3.9 3.85 3.8 3.75 50 4.80371 12.1363 -0.542311 4.80371 12.1363 -0.542311 53.8937 pippo 53.8937
ODOM 4.80371 12.1363 -0.542311 0 0 0 0 pippo 0
NEFF 16.1994
ODOM 4.85618 12.1086 -0.654499 0 0 0 54.0233 pippo 54.0233
ODOM 4.90591 12.0584 -0.710976 0 0 0 54.1729 pippo 54.1729
ODOM 4.95633 12.0099 -0.831095 0 0 0 54.3377 pippo 54.3377
ODOM 4.98688 11.9748 -0.895083 0 0 0 54.462 pippo 54.462
ODOM 5.01877 11.933 -0.958145 0 0 0 54.5804 pippo 54.5804
ODOM 5.04305 11.8889 -1.08722 0 0 0 54.7003 pippo 54.7003
FLASER 181 5.7 5.7 5.75 7.6 5.6 5.4 5.35 5.4 5.45 5.55 8.4 5.2 5.1 5.05 5.05 5.15 5.25 51.15 7.25 13.2 7 7.35 8.6 7 6.85 6.7 5.3 5.35 5.15 5.25 16.3 10.45 18.2 6.9 6.8 6.3 6.15 6.25 6.3 6.4 22.2 21.95 22 17.1 17 17.1 15.3 16.25 14.95 14.7 16.4 15.25 15.2 16.4 16.3 12.4 12.45 12.6 12.5 15.7 12.55 12.45 9.5 7.95 9.35 11.6 16.1 15.8 14.4 13.15 12.2 11.55 4.6 4.25 4.2 4.2 4.25 4.35 7.95 5.75 5.55 5.35 5.2 5.3 5.35 5.3 5.3 5.4 5.5 5.4 5.25 5.05 4.95 4.9 4.8 4.65 4.5 4.45 4.35 4.3 4.2 4.1 4.1 3.95 3.95 3.85 3.75 3.7 3.7 3.8 4 4.55 4.7 6 6.1 6.45 4.7 4.7 4.6 4.55 4.5 4.55 4.6 4.75 4.75 5.4 5.45 5.55 5.6 6.55 9.3 3.05 2.98 2.93 2.98 3.03 3 2.95 3.2 3 3.35 3.15 51.15 51.15 51.15 34.4 51.15 51.15 34.75 51.15 51.15 51.15 51.15 51.15 51.15 51.15 51.15 51.15 51.15 51.15 51.15 51.15 51.15 3.35 3.35 27.2 3.2 3.1 3.2 4.8 4.75 4.8 4.9 4.9 16.35 16.55 4.9 5.35 5 4.65 50 4.99843 11.8464 -1.01222 4.99843 11.8464 -1.01222 54.7003 pippo 54.7003
ODOM 4.99843 11.8464 -1.01222 0 0 0 0 pippo 0
NEFF 15.5256
ODOM 5.01871 11.8122 -1.07999 0 0 0 54.8187 pippo 54.8187
ODOM 5.04352 11.7732 -1.14326 0 0 0 54.9275 pippo 54.9275
ODOM 5.06347 11.7208 -1.1954 0 0 0 55.0476 pippo 55.0476
ODOM 5.08439 11.6698 -1.24646 0 0 0 55.1697 pippo 55.1697
ODOM 5.0945 11.6229 -1.29256 0 0 0 55.2878 pippo 55.2878
ODOM 5.10738 11.5661 -1.39081 0 0 0 55.4092 pippo 55.4092
ODOM 5.11852 11.5212 -1.43764 0 0 0 55.5265 pippo 55.5265
ODOM 5.12665 11.467 -1.48619 0 0 0 55.6375 pippo 55.6375
ODOM 5.12585 11.4102 -1.53457 0 0 0 55.7645 pippo 55.7645
FLASER 181 6.15 6.1 6.1 6.18 6.15 6.15 6.2 8.05 8.75 18.9 9.3 7.25 6.7 6.7 6.75 6.65 11.7 8.15 8.8 8.2 6.8 12.25 12 12.15 20 20.25 20.25 6.15 5.6 5.6 5.65 5.6 5.65 5.55 5.3 5.25 5.25 5.25 5.25 8.55 5 8.15 5.2 4.8 5 5.05 7.55 7.7 51.15 7.05 6.85 7.3 7.05 12.1 6.7 6.4 5 5.05 4.8 4.9 6.5 6.65 17.15 18.1 6.6 6.55 5.95 5.85 5.9 5.95 6 22.15 21.8 21.7 21.8 21.8 16.6 16.55 16.7 15.55 16 14.55 14.3 16 15.45 15.05 16 16.1 15.85 11.95 12.2 12.1 16.05 16.5 11.9 15 7.6 9 7.45 15.6 15.55 14.9 13.65 12.45 11.6 11.2 3.85 3.8 3.75 3.75 3.75 3.85 7.45 5.4 5.2 5 4.8 4.8 4.8 4.8 4.95 4.9 5 5.05 5.05 4.95 4.75 4.6 4.5 4.45 4.35 4.25 4.15 4.05 4 3.95 3.85 3.8 3.75 3.7 3.65 3.55 3.45 3.45 3.4 3.35 3.4 3.35 3.5 4.2 4.5 5.75 6.1 4.6 4.4 4.35 4.3 4.25 4.2 4.25 4.3 4.35 4.45 5 5.1 5.25 5.55 6.7 9.1 12.65 2.95 2.95 2.9 2.8 2.78 2.73 2.8 2.8 3.05 34.3 50 5.15153 11.4018 -1.60644 5.15153 11.4018 -1.60644 55.7645 pippo 55.7645
ODOM 5.15153 11.4018 -1.60644 0 0 0 0 pippo 0
NEFF 16.0772
ODOM 5.13692 11.3509 -1.6545 0 0 0 55.887 pippo 55.887
ODOM 5.14404 11.3023 -1.74817 0 0 0 56.0122 pippo 56.0122
ODOM 5.13444 11.3038 -1.7955 0 0 0 56.1276 pippo 56.1276
ODOM 5.12045 11.2463 -1.84212 0 0 0 56.2475 pippo 56.2475
ODOM 5.10653 11.1988 -1.89241 0 0 0 56.3647 pippo 56.3647
ODOM 5.08637 11.1559 -1.9397 0 0 0 56.4895 pippo 56.4895
ODOM 5.06479 11.0963 -2.03194 0 0 0 56.6122 pippo 56.6122
ODOM 5.01101 11.0027 -2.0782 0 0 0 56.7276 pippo 56.7276
ODOM 5.00591 11.0072 -2.12447 0 0 0 56.8477 pippo 56.8477
FLASER 181 10.75 11.05 12.2 12.3 18.35 18.35 16.8 19.95 19.4 19.45 19.55 13.45 18.75 15.05 51.15 18.55 51.15 51.15 18.3 18.35 12.65 12.6 18.05 6.1 6 6 6 6 6 6.05 6 5.95 7.9 7.95 8 8.45 9.4 6.7 6.5 6.55 6.5 6.55 16.55 11.9 7.95 7.95 6.5 12.75 6.65 11.85 11.8 11.85 19.5 5.65 5.3 5.3 5.25 5.3 5.4 5.25 4.8 4.85 4.9 4.9 4.95 12 4.65 5.4 4.85 4.45 4.75 4.55 4.55 7.15 7.25 7.65 51.15 12.65 12.45 6.85 6.6 11.7 6.1 6.1 4.55 4.65 4.4 4.5 6 6.2 14.45 17.9 9.4 6.4 6 5.45 5.35 5.35 5.45 5.5 5.55 21.7 21.4 21.1 21.2 21.15 16.2 16.3 15.3 14.15 15.8 14.15 15.55 15.45 14.6 14.9 15.45 15.4 15.4 11.55 15.65 11.5 15.7 15.85 11.75 11.8 8.4 7.2 8.45 7.05 15.35 14.75 13.5 12.5 11.8 11 10.3 9.7 9.2 3.5 3.4 3.35 3.35 3.35 3.4 3.45 5.05 4.8 4.65 4.5 4.45 4.45 4.5 4.55 4.55 4.65 4.75 4.7 4.6 4.6 4.5 4.4 4.25 4.2 4.15 4.1 4 3.9 3.85 3.75 3.75 3.7 3.65 3.55 3.5 3.55 3.45 3.45 3.35 3.3 50 4.99653 10.9415 -2.1229 4.99653 10.9415 -2.1229 56.8477 pippo 56.8477
ODOM 4.99653 10.9415 -2.1229 0 0 0 0 pippo 0
NEFF 16.2264
ODOM 4.97265 10.8902 -2.16967 0 0 0 56.9925 pippo 56.9925
ODOM 4.93219 10.8387 -2.25903 0 0 0 57.1088 pippo 57.1088
ODOM 4.8926 10.7924 -2.29973 0 0 0 57.2475 pippo 57.2475
ODOM 4.80133 10.6971 -2.38301 0 0 0 57.4092 pippo 57.4092
ODOM 4.76601 10.6683 -2.4232 0 0 0 57.5276 pippo 57.5276
ODOM 4.72196 10.6384 -2.46306 0 0 0 57.6478 pippo 57.6478
ODOM 4.67925 10.6084 -2.49944 0 0 0 57.7645 pippo 57.7645
ODOM 4.67974 10.5791 -2.53389 0 0 0 57.889 pippo 57.889
ODOM 4.63505 10.5451 -2.55404 0 0 0 58.0082 pippo 58.0082
ODOM 4.57988 10.5383 -2.54105 0 0 0 58.1276 pippo 58.1276
ODOM 4.52957 10.5027 -2.51468 0 0 0 58.2478 pippo 58.2478
ODOM 4.48796 10.4683 -2.4705 0 0 0 58.3721 pippo 58.3721
FLASER 181 6.65 10.3 10.35 51.15 10.2 10.4 13 13.05 13.2 13.45 13.7 11.35 11.05 10.8 10.7 10.65 10.5 10.3 10.05 10.15 10.4 10.7 10.95 12.05 12 17.95 18.1 18.05 16.2 14.6 16.7 14.5 14.45 13.1 13.15 18.5 13.65 13.3 13.3 13.95 15.3 5.7 5.6 5.58 5.6 5.6 5.6 5.5 5.55 5.45 5.5 5.9 7.43 7.33 7.3 16.9 7.85 15.75 5.9 5.9 5.95 6 6.2 10.5 12.2 7.35 8.05 5.95 10.65 5.9 11.85 11.8 11.25 11.2 11.3 4.6 4.6 4.65 4.65 4.6 4.65 4.4 4.2 4.2 4.2 4.2 4.2 4.35 4 3.95 4.95 7.2 3.7 7.15 3.85 3.95 10.25 6.45 5.25 6.7 51.15 5.85 10.45 5.6 11.8 6.15 5.55 5.4 5.5 3.95 3.85 3.9 3.7 3.75 5.35 5.55 15.7 14.9 8.85 5.45 5.4 4.95 4.75 4.7 4.75 4.8 4.9 4.9 20.45 20.55 20.3 15.35 15.6 14.7 14.55 13.7 15 15.05 13.6 14 13.7 13.65 14.95 15.05 15.05 11.05 14.95 11.1 14.35 15.75 11.3 11.15 15.15 15.1 8.15 6.65 10.4 6.65 13.35 12.55 11.8 11 10.4 10 9.65 9.2 8.8 8.4 8.05 7.75 7.6 7.35 7.05 3.3 3.2 3.2 3.15 3.15 3.2 3.25 50 4.46796 10.5213 -2.53456 4.46796 10.5213 -2.53456 58.3721 pippo 58.3721
ODOM 4.46796 10.5213 -2.53456 0 0 0 0 pippo 0
NEFF 15.8707
ODOM 4.43031 10.494 -2.47633 0 0 0 58.4897 pippo 58.4897
ODOM 4.38503 10.4612 -2.33301 0 0 0 58.6087 pippo 58.6087
ODOM 4.32581 10.3767 -2.26012 0 0 0 58.7277 pippo 58.7277
ODOM 4.32241 10.3785 -2.18855 0 0 0 58.848 pippo 58.848
ODOM 4.26817 10.2941 -2.11864 0 0 0 58.9702 pippo 58.9702
ODOM 4.24508 10.2502 -2.06174 0 0 0 59.0889 pippo 59.0889
ODOM 4.21738 10.2011 -1.98908 0 0 0 59.2088 pippo 59.2088
FLASER 181 14.4 13.15 18.55 14.35 13.2 13.15 13.3 5.5 5.4 5.4 5.43 5.4 5.35 5.33 5.25 5.3 5.25 5.45 6.25 7.2 7.15 7.15 7.4 7.55 5.7 5.71 5.65 5.65 5.65 10.25 10.4 10.4 17.5 13.3 5.7 10.45 5.65 11.95 11.75 11.55 10.9 10.9 4.25 4.3 4.3 4.3 4.35 4.3 4.2 3.85 3.85 3.85 3.85 3.85 3.9 7 3.55 3.5 3.45 3.4 3.35 3.4 3.45 3.6 3.65 9.9 6.1 6.15 6.25 51.15 5.55 11.75 5.3 11.35 5.6 10.7 5.1 5.1 5.2 3.55 3.55 4.9 3.4 3.4 5.05 5.2 14.6 8.6 16.3 5.1 5.1 4.95 4.55 4.45 4.4 4.4 4.55 4.55 4.55 20.15 15.15 15.2 15.3 14.3 14.2 14.45 13.25 14.7 13.05 14.75 13.55 13.6 14.65 14.65 14.65 10.8 10.85 10.9 10.85 15.5 15.4 10.85 15 14.95 14.65 7.75 10.2 6.45 13.7 6.45 11.95 11.35 10.85 10.45 9.9 9.4 9.1 8.8 8.45 8.1 7.8 7.65 7.35 7.2 6.95 6.65 6.55 6.35 3.4 3.15 3.1 3.05 3.05 3.1 3.15 3.15 4.3 4.3 4.4 4.45 4.45 4.55 4.7 4.7 4.65 4.55 4.55 4.45 4.45 4.4 4.3 4.25 4.2 4.2 4.1 4.05 4 4.05 3.95 3.95 50 4.1772 10.2399 -1.98911 4.1772 10.2399 -1.98911 59.2088 pippo 59.2088
ODOM 4.1772 10.2399 -1.98911 0 0 0 0 pippo 0
NEFF 14.3481
ODOM 4.1513 10.1824 -1.95542 0 0 0 59.3274 pippo 59.3274
ODOM 4.13725 10.1361 -1.92653 0 0 0 59.4395 pippo 59.4395
ODOM 4.1137 10.083 -1.89602 0 0 0 59.5574 pippo 59.5574
ODOM 4.0988 10.0269 -1.86682 0 0 0 59.6875 pippo 59.6875
ODOM 4.08486 9.97685 -1.80553 0 0 0 59.8084 pippo 59.8084
ODOM 4.07088 9.92185 -1.7739 0 0 0 59.9232 pippo 59.9232
ODOM 4.06536 9.86096 -1.74394 0 0 0 60.0475 pippo 60.0475
ODOM 4.05032 9.80687 -1.71257 0 0 0 60.1676 pippo 60.1676
ODOM 4.04255 9.72883 -1.652 0 0 0 60.3273 pippo 60.3273
ODOM 4.03973 9.71048 -1.63475 0 0 0 60.4894 pippo 60.4894
ODOM 4.03398 9.65369 -1.64974 0 0 0 60.6086 pippo 60.6086
ODOM 4.03041 9.52929 -1.6696 0 0 0 60.7274 pippo 60.7274
ODOM 4.02476 9.4935 -1.68713 0 0 0 60.8285 pippo 60.8285
ODOM 4.00706 9.41138 -1.70634 0 0 0 60.9621 pippo 60.9621
ODOM 4.00254 9.36447 -1.72066 0 0 0 61.0719 pippo 61.0719
ODOM 3.99896 9.30147 -1.72261 0 0 0 61.1876 pippo 61.1876
ODOM 3.98393 9.23818 -1.71361 0 0 0 61.3275 pippo 61.3275
FLASER 181 5.5 8.05 8.05 8.35 12.55 10.15 5.35 6.9 5.35 17.4 10.8 3.9 3.9 3.85 3.9 3.9 3.9 3.3 3.35 3.35 3.35 3.3 3.33 3 2.85 2.8 2.7 2.75 2.75 2.8 2.8 2.85 2.85 2.9 4.65 4.7 6.05 6.05 6.2 6.2 12.6 9.4 9.4 9.1 9.3 4.75 9.55 4.5 4.9 11.35 4.75 4.3 2.6 2.65 2.7 2.45 2.5 2.5 2.85 3.98 4.05 4.15 4.15 4.75 14.35 14.3 14.55 4.2 4.1 4.1 3.65 3.5 3.4 3.4 3.35 3.45 3.5 3.55 3.55 19.3 19.35 19.3 14.1 14.1 14.3 13.5 13.15 12.4 11.95 13.75 13.65 13.85 13.35 12.65 13.65 13.6 13.65 13.8 10.2 9.75 13.45 9.85 10 14.45 14.25 9.95 14.05 14 11 10.3 6.9 9.3 7 12.05 5.55 10.9 5.6 9.95 9.5 9.2 8.95 8.6 8.25 7.9 7.75 7.55 7.25 7.05 6.9 6.8 6.65 6.35 6.2 6.1 6 5.9 5.7 5.6 5.55 5.4 5.35 5.2 4.25 4.2 4.15 4.1 2.6 2.6 2.5 2.5 2.55 2.5 2.5 2.5 2.6 2.7 4.2 4.25 4.2 4.25 4.2 4.15 4.1 4.05 4.05 4.05 4 4 3.9 3.9 3.9 3.9 3.9 3.8 3.8 3.8 3.85 3.8 3.8 3.75 50 4.01441 9.29169 -1.68236 4.01441 9.29169 -1.68236 61.3275 pippo 61.3275
ODOM 4.01441 9.29169 -1.68236 0 0 0 0 pippo 0
NEFF 29.7228
ODOM 4.01196 9.23299 -1.68061 0 0 0 61.4283 pippo 61.4283
ODOM 4.00891 9.18519 -1.67463 0 0 0 61.5474 pippo 61.5474
ODOM 3.99634 9.1175 -1.66947 0 0 0 61.6717 pippo 61.6717
ODOM 3.99333 9.07173 -1.66385 0 0 0 61.7878 pippo 61.7878
ODOM 3.98883 8.98923 -1.65564 0 0 0 61.9201 pippo 61.9201
ODOM 3.98499 8.94064 -1.6499 0 0 0 62.0335 pippo 62.0335
ODOM 3.98115 8.87253 -1.64546 0 0 0 62.1623 pippo 62.1623
ODOM 3.97782 8.81384 -1.63864 0 0 0 62.2775 pippo 62.2775
ODOM 3.97335 8.75887 -1.6262 0 0 0 62.3988 pippo 62.3988
ODOM 3.97951 8.69639 -1.62007 0 0 0 62.5126 pippo 62.5126
ODOM 3.97575 8.63968 -1.61073 0 0 0 62.6329 pippo 62.6329
ODOM 3.97273 8.58025 -1.60499 0 0 0 62.7622 pippo 62.7622
ODOM 3.96358 8.57996 -1.59823 0 0 0 62.8719 pippo 62.8719
ODOM 3.96017 8.51296 -1.57804 0 0 0 63.0085 pippo 63.0085
ODOM 3.96555 8.46736 -1.56926 0 0 0 63.1085 pippo 63.1085
ODOM 3.96244 8.39213 -1.56003 0 0 0 63.2472 pippo 63.2472
ODOM 3.96537 8.25836 -1.54517 0 0 0 63.4083 pippo 63.4083
FLASER 181 2.5 2.55 2.5 2.5 2.53 3.4 3.05 5.25 3.2 5.3 5.35 5.55 5.9 5.9 5.9 6 3.6 8.6 5.75 5.5 5.55 5.65 5.7 1.95 1.93 1.95 1.73 1.7 1.7 1.73 1.75 4.3 3.65 3.5 3.45 3.5 3.55 3.4 3.2 3.15 3.1 3.15 3.2 3.2 3.25 3.3 3.45 3.9 3.95 5.3 14 13.95 3.2 3.2 2.7 2.55 2.45 2.4 2.4 2.48 2.48 2.45 2.5 2.5 2.5 2.65 8.15 8.4 18.6 18.35 18.35 18.35 18.35 18.15 13 13.15 13.4 12.45 11.3 12.8 10.95 12.65 11.2 12.75 11.6 11.65 12.6 12.65 12.7 12.7 12.65 8.9 8.75 12.55 8.85 8.85 13.45 13.3 9.1 9 12.85 12.85 9.95 9.35 8.75 8.25 5.85 11.2 6.1 10.25 9.7 4.5 9.05 4.65 8.5 8.15 7.85 7.7 7.4 7.2 6.95 6.85 6.75 6.5 6.35 6.15 6.1 5.95 5.85 5.75 5.7 5.55 5.5 5.35 5.25 5.2 5.1 5 4.9 4.9 4.8 4.75 4.7 4.6 4.5 4.45 4.45 3.65 3.6 3.6 3.6 3.5 3.5 3.5 3.4 3.45 3.4 3.35 3.35 3.3 2.25 2.2 2.15 2.15 2.1 2.1 2.15 2.15 2.2 2.2 2.25 3.85 3.9 3.85 3.85 3.85 3.8 3.8 3.8 3.85 50 3.9637 8.20251 -1.54671 3.9637 8.20251 -1.54671 63.4083 pippo 63.4083
ODOM 3.9637 8.20251 -1.54671 0 0 0 0 pippo 0
NEFF 29.5186
ODOM 3.9698 8.12747 -1.53812 0 0 0 63.5474 pippo 63.5474
ODOM 3.97413 8.06932 -1.53091 0 0 0 63.6673 pippo 63.6673
ODOM 3.97078 7.99676 -1.51714 0 0 0 63.8085 pippo 63.8085
ODOM 3.97573 7.94067 -1.51314 0 0 0 63.9116 pippo 63.9116
ODOM 3.97938 7.89331 -1.51513 0 0 0 64.0275 pippo 64.0275
ODOM 3.98436 7.83067 -1.51764 0 0 0 64.1473 pippo 64.1473
ODOM 3.98896 7.76324 -1.52252 0 0 0 64.2877 pippo 64.2877
ODOM 3.98508 7.69736 -1.53427 0 0 0 64.4119 pippo 64.4119
ODOM 3.99002 7.64193 -1.54005 0 0 0 64.5095 pippo 64.5095
ODOM 3.99397 7.59481 -1.54587 0 0 0 64.6274 pippo 64.6274
ODOM 3.99385 7.59573 -1.55298 0 0 0 64.7475 pippo 64.7475
ODOM 3.99354 7.46221 -1.56436 0 0 0 64.8876 pippo 64.8876
ODOM 3.99328 7.46364 -1.58744 0 0 0 65.012 pippo 65.012
ODOM 3.98845 7.41581 -1.59803 0 0 0 65.1094 pippo 65.1094
ODOM 3.98335 7.34094 -1.60862 0 0 0 65.2485 pippo 65.2485
ODOM 3.98424 7.23526 -1.61836 0 0 0 65.3473 pippo 65.3473
ODOM 3.98345 7.22558 -1.63118 0 0 0 65.4877 pippo 65.4877
ODOM 3.97843 7.17064 -1.65035 0 0 0 65.6134 pippo 65.6134
